{
  "AGGH": {
    "icao": "AGGH",
    "iata": "HIR",
    "name": "Honiara International Airport",
    "city": "Honiara",
    "state": "GU",
    "country": "SB",
    "elevation": 28,
    "lat": -9.428,
    "lon": 160.054993,
    "tz": ""
  },
  "AYPY": {
    "icao": "AYPY",
    "iata": "POM",
    "name": "Port Moresby Jacksons International Airport",
    "city": "Port Moresby",
    "state": "NCD",
    "country": "PG",
    "elevation": 146,
    "lat": -9.443380355834961,
    "lon": 147.22000122070312,
    "tz": ""
  },
  "BIKF": {
    "icao": "BIKF",
    "iata": "KEF",
    "name": "Keflavik International Airport",
    "city": "Reykjavík",
    "state": "2",
    "country": "IS",
    "elevation": 171,
    "lat": 63.985001,
    "lon": -22.6056,
    "tz": ""
  },
  "CYEG": {
    "icao": "CYEG",
    "iata": "YEG",
    "name": "Edmonton International Airport",
    "city": "Edmonton",
    "state": "AB",
    "country": "CA",
    "elevation": 2373,
    "lat": 53.3097,
    "lon": -113.580002,
    "tz": ""
  },
  "CYHZ": {
    "icao": "CYHZ",
    "iata": "YHZ",
    "name": "Halifax / Stanfield International Airport",
    "city": "Halifax",
    "state": "NS",
    "country": "CA",
    "elevation": 477,
    "lat": 44.8807983398,
    "lon": -63.5085983276,
    "tz": ""
  },
  "CYOW": {
    "icao": "CYOW",
    "iata": "YOW",
    "name": "Ottawa Macdonald-Cartier International Airport",
    "city": "Ottawa",
    "state": "ON",
    "country": "CA",
    "elevation": 374,
    "lat": 45.322498,
    "lon": -75.669197,
    "tz": ""
  },
  "CYQB": {
    "icao": "CYQB",
    "iata": "YQB",
    "name": "Quebec Jean Lesage International Airport",
    "city": "Quebec",
    "state": "QC",
    "country": "CA",
    "elevation": 244,
    "lat": 46.7911,
    "lon": -71.393303,
    "tz": ""
  },
  "CYUL": {
    "icao": "CYUL",
    "iata": "YUL",
    "name": "Montreal / Pierre Elliott Trudeau International Airport",
    "city": "Montréal",
    "state": "QC",
    "country": "CA",
    "elevation": 118,
    "lat": 45.467837,
    "lon": -73.742294,
    "tz": ""
  },
  "CYVR": {
    "icao": "CYVR",
    "iata": "YVR",
    "name": "Vancouver International Airport",
    "city": "Vancouver",
    "state": "BC",
    "country": "CA",
    "elevation": 14,
    "lat": 49.193901062,
    "lon": -123.183998108,
    "tz": ""
  },
  "CYWG": {
    "icao": "CYWG",
    "iata": "YWG",
    "name": "Winnipeg / James Armstrong Richardson International Airport",
    "city": "Winnipeg",
    "state": "MB",
    "country": "CA",
    "elevation": 783,
    "lat": 49.909999847399995,
    "lon": -97.2398986816,
    "tz": ""
  },
  "CYYC": {
    "icao": "CYYC",
    "iata": "YYC",
    "name": "Calgary International Airport",
    "city": "Calgary",
    "state": "AB",
    "country": "CA",
    "elevation": 3557,
    "lat": 51.118822,
    "lon": -114.009933,
    "tz": ""
  },
  "CYYT": {
    "icao": "CYYT",
    "iata": "YYT",
    "name": "St. John's International Airport",
    "city": "St. John's",
    "state": "NL",
    "country": "CA",
    "elevation": 461,
    "lat": 47.618599,
    "lon": -52.7519,
    "tz": ""
  },
  "CYYZ": {
    "icao": "CYYZ",
    "iata": "YYZ",
    "name": "Toronto Lester B. Pearson International Airport",
    "city": "Toronto",
    "state": "ON",
    "country": "CA",
    "elevation": 569,
    "lat": 43.6772,
    "lon": -79.6306,
    "tz": ""
  },
  "DAAG": {
    "icao": "DAAG",
    "iata": "ALG",
    "name": "Houari Boumediene Airport",
    "city": "Algiers",
    "state": "16",
    "country": "DZ",
    "elevation": 82,
    "lat": 36.693886,
    "lon": 3.214531,
    "tz": ""
  },
  "DGAA": {
    "icao": "DGAA",
    "iata": "ACC",
    "name": "Kotoka International Airport",
    "city": "Accra",
    "state": "AA",
    "country": "GH",
    "elevation": 205,
    "lat": 5.605189800262451,
    "lon": -0.16678600013256073,
    "tz": ""
  },
  "DNAA": {
    "icao": "DNAA",
    "iata": "ABV",
    "name": "Nnamdi Azikiwe International Airport",
    "city": "Abuja",
    "state": "FC",
    "country": "NG",
    "elevation": 1123,
    "lat": 9.00679,
    "lon": 7.26317,
    "tz": ""
  },
  "DNMM": {
    "icao": "DNMM",
    "iata": "LOS",
    "name": "Murtala Muhammed International Airport",
    "city": "Lagos",
    "state": "LA",
    "country": "NG",
    "elevation": 135,
    "lat": 6.57737,
    "lon": 3.32116,
    "tz": ""
  },
  "DRRN": {
    "icao": "DRRN",
    "iata": "NIM",
    "name": "Diori Hamani International Airport",
    "city": "Niamey",
    "state": "8",
    "country": "NE",
    "elevation": 732,
    "lat": 13.4815,
    "lon": 2.18361,
    "tz": ""
  },
  "DTTA": {
    "icao": "DTTA",
    "iata": "TUN",
    "name": "Tunis Carthage International Airport",
    "city": "Tunis",
    "state": "11",
    "country": "TN",
    "elevation": 22,
    "lat": 36.851002,
    "lon": 10.2272,
    "tz": ""
  },
  "EBBR": {
    "icao": "EBBR",
    "iata": "BRU",
    "name": "Brussels Airport",
    "city": "Zaventem",
    "state": "VBR",
    "country": "BE",
    "elevation": 175,
    "lat": 50.901402,
    "lon": 4.48444,
    "tz": ""
  },
  "EDDB": {
    "icao": "EDDB",
    "iata": "BER",
    "name": "Berlin Brandenburg Airport",
    "city": "Berlin",
    "state": "BR",
    "country": "DE",
    "elevation": 157,
    "lat": 52.362247,
    "lon": 13.500672,
    "tz": ""
  },
  "EDDF": {
    "icao": "EDDF",
    "iata": "FRA",
    "name": "Frankfurt Airport",
    "city": "Frankfurt am Main",
    "state": "HE",
    "country": "DE",
    "elevation": 364,
    "lat": 50.030241,
    "lon": 8.561096,
    "tz": ""
  },
  "EDDH": {
    "icao": "EDDH",
    "iata": "HAM",
    "name": "Hamburg Helmut Schmidt Airport",
    "city": "Hamburg",
    "state": "HH",
    "country": "DE",
    "elevation": 53,
    "lat": 53.630402,
    "lon": 9.98823,
    "tz": ""
  },
  "EDDK": {
    "icao": "EDDK",
    "iata": "CGN",
    "name": "Cologne Bonn Airport",
    "city": "Köln (Cologne)",
    "state": "NW",
    "country": "DE",
    "elevation": 302,
    "lat": 50.865898,
    "lon": 7.14274,
    "tz": ""
  },
  "EDDL": {
    "icao": "EDDL",
    "iata": "DUS",
    "name": "Düsseldorf Airport",
    "city": "Düsseldorf",
    "state": "NW",
    "country": "DE",
    "elevation": 147,
    "lat": 51.289501,
    "lon": 6.76678,
    "tz": ""
  },
  "EDDM": {
    "icao": "EDDM",
    "iata": "MUC",
    "name": "Munich Airport",
    "city": "Munich",
    "state": "BY",
    "country": "DE",
    "elevation": 1487,
    "lat": 48.353802,
    "lon": 11.7861,
    "tz": ""
  },
  "EDDN": {
    "icao": "EDDN",
    "iata": "NUE",
    "name": "Nuremberg Airport",
    "city": "Nuremberg",
    "state": "BY",
    "country": "DE",
    "elevation": 1046,
    "lat": 49.498699,
    "lon": 11.078056,
    "tz": ""
  },
  "EDDP": {
    "icao": "EDDP",
    "iata": "LEJ",
    "name": "Leipzig/Halle Airport",
    "city": "Schkeuditz",
    "state": "SN",
    "country": "DE",
    "elevation": 465,
    "lat": 51.420657,
    "lon": 12.232705,
    "tz": ""
  },
  "EDDS": {
    "icao": "EDDS",
    "iata": "STR",
    "name": "Stuttgart Airport",
    "city": "Stuttgart",
    "state": "BW",
    "country": "DE",
    "elevation": 1276,
    "lat": 48.689899,
    "lon": 9.22196,
    "tz": ""
  },
  "EDDV": {
    "icao": "EDDV",
    "iata": "HAJ",
    "name": "Hannover Airport",
    "city": "Hannover",
    "state": "NI",
    "country": "DE",
    "elevation": 183,
    "lat": 52.461102,
    "lon": 9.68508,
    "tz": ""
  },
  "EETN": {
    "icao": "EETN",
    "iata": "TLL",
    "name": "Lennart Meri Tallinn Airport",
    "city": "Tallinn",
    "state": "37",
    "country": "EE",
    "elevation": 131,
    "lat": 59.413246,
    "lon": 24.83264,
    "tz": ""
  },
  "EFHK": {
    "icao": "EFHK",
    "iata": "HEL",
    "name": "Helsinki Vantaa Airport",
    "city": "Helsinki (Vantaa)",
    "state": "18",
    "country": "FI",
    "elevation": 179,
    "lat": 60.318363,
    "lon": 24.963341,
    "tz": ""
  },
  "EGAA": {
    "icao": "EGAA",
    "iata": "BFS",
    "name": "Belfast International Airport",
    "city": "Belfast",
    "state": "NIR",
    "country": "GB",
    "elevation": 268,
    "lat": 54.6575012207,
    "lon": -6.2158298492399995,
    "tz": ""
  },
  "EGBB": {
    "icao": "EGBB",
    "iata": "BHX",
    "name": "Birmingham Airport",
    "city": "Birmingham, West Midlands",
    "state": "ENG",
    "country": "GB",
    "elevation": 327,
    "lat": 52.453899,
    "lon": -1.74803,
    "tz": ""
  },
  "EGCC": {
    "icao": "EGCC",
    "iata": "MAN",
    "name": "Manchester Airport",
    "city": "Manchester, Greater Manchester",
    "state": "ENG",
    "country": "GB",
    "elevation": 257,
    "lat": 53.349375,
    "lon": -2.279521,
    "tz": ""
  },
  "EGGW": {
    "icao": "EGGW",
    "iata": "LTN",
    "name": "London Luton Airport",
    "city": "Luton, Bedfordshire",
    "state": "ENG",
    "country": "GB",
    "elevation": 526,
    "lat": 51.874699,
    "lon": -0.368333,
    "tz": ""
  },
  "EGKK": {
    "icao": "EGKK",
    "iata": "LGW",
    "name": "London Gatwick Airport",
    "city": "London",
    "state": "ENG",
    "country": "GB",
    "elevation": 202,
    "lat": 51.148771,
    "lon": -0.192089,
    "tz": ""
  },
  "EGLL": {
    "icao": "EGLL",
    "iata": "LHR",
    "name": "London Heathrow Airport",
    "city": "London",
    "state": "ENG",
    "country": "GB",
    "elevation": 83,
    "lat": 51.4706,
    "lon": -0.461941,
    "tz": ""
  },
  "EGPF": {
    "icao": "EGPF",
    "iata": "GLA",
    "name": "Glasgow International Airport",
    "city": "Paisley, Renfrewshire",
    "state": "SCT",
    "country": "GB",
    "elevation": 26,
    "lat": 55.871899,
    "lon": -4.43306,
    "tz": ""
  },
  "EGPH": {
    "icao": "EGPH",
    "iata": "EDI",
    "name": "Edinburgh Airport",
    "city": "Edinburgh",
    "state": "SCT",
    "country": "GB",
    "elevation": 135,
    "lat": 55.950145,
    "lon": -3.372288,
    "tz": ""
  },
  "EGSS": {
    "icao": "EGSS",
    "iata": "STN",
    "name": "London Stansted Airport",
    "city": "London",
    "state": "ENG",
    "country": "GB",
    "elevation": 348,
    "lat": 51.884998,
    "lon": 0.235,
    "tz": ""
  },
  "EHAM": {
    "icao": "EHAM",
    "iata": "AMS",
    "name": "Amsterdam Airport Schiphol",
    "city": "Amsterdam",
    "state": "NH",
    "country": "NL",
    "elevation": -11,
    "lat": 52.308601,
    "lon": 4.76389,
    "tz": ""
  },
  "EHEH": {
    "icao": "EHEH",
    "iata": "EIN",
    "name": "Eindhoven Airport",
    "city": "Eindhoven",
    "state": "NB",
    "country": "NL",
    "elevation": 74,
    "lat": 51.4500999451,
    "lon": 5.37452983856,
    "tz": ""
  },
  "EIDW": {
    "icao": "EIDW",
    "iata": "DUB",
    "name": "Dublin Airport",
    "city": "Dublin",
    "state": "D",
    "country": "IE",
    "elevation": 242,
    "lat": 53.428713,
    "lon": -6.262121,
    "tz": ""
  },
  "EINN": {
    "icao": "EINN",
    "iata": "SNN",
    "name": "Shannon Airport",
    "city": "Shannon",
    "state": "CE",
    "country": "IE",
    "elevation": 46,
    "lat": 52.702,
    "lon": -8.92482,
    "tz": ""
  },
  "EKBI": {
    "icao": "EKBI",
    "iata": "BLL",
    "name": "Billund Airport",
    "city": "Billund",
    "state": "83",
    "country": "DK",
    "elevation": 247,
    "lat": 55.740335,
    "lon": 9.157019,
    "tz": ""
  },
  "EKCH": {
    "icao": "EKCH",
    "iata": "CPH",
    "name": "Copenhagen Kastrup Airport",
    "city": "Copenhagen",
    "state": "84",
    "country": "DK",
    "elevation": 17,
    "lat": 55.617900848389,
    "lon": 12.656000137329,
    "tz": ""
  },
  "ELLX": {
    "icao": "ELLX",
    "iata": "LUX",
    "name": "Luxembourg-Findel International Airport",
    "city": "Luxembourg",
    "state": "L",
    "country": "LU",
    "elevation": 1234,
    "lat": 49.6233333,
    "lon": 6.2044444,
    "tz": ""
  },
  "ENBR": {
    "icao": "ENBR",
    "iata": "BGO",
    "name": "Bergen Airport, Flesland",
    "city": "Bergen",
    "state": "46",
    "country": "NO",
    "elevation": 170,
    "lat": 60.2934,
    "lon": 5.21814,
    "tz": ""
  },
  "ENGM": {
    "icao": "ENGM",
    "iata": "OSL",
    "name": "Oslo Airport, Gardermoen",
    "city": "Oslo (Gardermoen)",
    "state": "32",
    "country": "NO",
    "elevation": 681,
    "lat": 60.193901,
    "lon": 11.1004,
    "tz": ""
  },
  "ENTC": {
    "icao": "ENTC",
    "iata": "TOS",
    "name": "Tromsø Airport, Langnes",
    "city": "Tromsø",
    "state": "55",
    "country": "NO",
    "elevation": 31,
    "lat": 69.683296,
    "lon": 18.9189,
    "tz": ""
  },
  "ENVA": {
    "icao": "ENVA",
    "iata": "TRD",
    "name": "Trondheim Airport, Værnes",
    "city": "Trondheim",
    "state": "50",
    "country": "NO",
    "elevation": 56,
    "lat": 63.457802,
    "lon": 10.924,
    "tz": ""
  },
  "ENZV": {
    "icao": "ENZV",
    "iata": "SVG",
    "name": "Stavanger Airport, Sola",
    "city": "Stavanger",
    "state": "11",
    "country": "NO",
    "elevation": 29,
    "lat": 58.876701,
    "lon": 5.63778,
    "tz": ""
  },
  "EPGD": {
    "icao": "EPGD",
    "iata": "GDN",
    "name": "Gdańsk Lech Wałęsa Airport",
    "city": "Gdańsk",
    "state": "PM",
    "country": "PL",
    "elevation": 489,
    "lat": 54.377602,
    "lon": 18.4662,
    "tz": ""
  },
  "EPKK": {
    "icao": "EPKK",
    "iata": "KRK",
    "name": "Kraków John Paul II International Airport",
    "city": "Balice",
    "state": "MA",
    "country": "PL",
    "elevation": 791,
    "lat": 50.077702,
    "lon": 19.7848,
    "tz": ""
  },
  "EPWA": {
    "icao": "EPWA",
    "iata": "WAW",
    "name": "Warsaw Chopin Airport",
    "city": "Warsaw",
    "state": "MZ",
    "country": "PL",
    "elevation": 362,
    "lat": 52.165699,
    "lon": 20.9671,
    "tz": ""
  },
  "ESGG": {
    "icao": "ESGG",
    "iata": "GOT",
    "name": "Göteborg Landvetter Airport",
    "city": "Göteborg",
    "state": "Q",
    "country": "SE",
    "elevation": 506,
    "lat": 57.6628,
    "lon": 12.2798,
    "tz": ""
  },
  "ESSA": {
    "icao": "ESSA",
    "iata": "ARN",
    "name": "Stockholm-Arlanda Airport",
    "city": "Stockholm",
    "state": "AB",
    "country": "SE",
    "elevation": 137,
    "lat": 59.64849,
    "lon": 17.928829,
    "tz": ""
  },
  "EVRA": {
    "icao": "EVRA",
    "iata": "RIX",
    "name": "Riga International Airport",
    "city": "Riga",
    "state": "062",
    "country": "LV",
    "elevation": 36,
    "lat": 56.923599,
    "lon": 23.9711,
    "tz": ""
  },
  "EYVI": {
    "icao": "EYVI",
    "iata": "VNO",
    "name": "Vilnius International Airport",
    "city": "Vilnius",
    "state": "VL",
    "country": "LT",
    "elevation": 648,
    "lat": 54.634102,
    "lon": 25.285801,
    "tz": ""
  },
  "FACT": {
    "icao": "FACT",
    "iata": "CPT",
    "name": "Cape Town International Airport",
    "city": "Cape Town",
    "state": "WC",
    "country": "ZA",
    "elevation": 151,
    "lat": -33.9648017883,
    "lon": 18.6016998291,
    "tz": ""
  },
  "FALE": {
    "icao": "FALE",
    "iata": "DUR",
    "name": "King Shaka International Airport",
    "city": "Durban",
    "state": "NL",
    "country": "ZA",
    "elevation": 295,
    "lat": -29.6144444444,
    "lon": 31.1197222222,
    "tz": ""
  },
  "FAOR": {
    "icao": "FAOR",
    "iata": "JNB",
    "name": "O.R. Tambo International Airport",
    "city": "Johannesburg",
    "state": "GT",
    "country": "ZA",
    "elevation": 5558,
    "lat": -26.1392,
    "lon": 28.246,
    "tz": ""
  },
  "FBSK": {
    "icao": "FBSK",
    "iata": "GBE",
    "name": "Sir Seretse Khama International Airport",
    "city": "Gaborone",
    "state": "GA",
    "country": "BW",
    "elevation": 3299,
    "lat": -24.555201,
    "lon": 25.9182,
    "tz": ""
  },
  "FDSK": {
    "icao": "FDSK",
    "iata": "SHO",
    "name": "King Mswati III International Airport",
    "city": "Mpaka",
    "state": "LU",
    "country": "SZ",
    "elevation": 1092,
    "lat": -26.358611,
    "lon": 31.716944,
    "tz": ""
  },
  "FIMP": {
    "icao": "FIMP",
    "iata": "MRU",
    "name": "Sir Seewoosagur Ramgoolam International Airport",
    "city": "Plaine Magnien",
    "state": "GP",
    "country": "MU",
    "elevation": 186,
    "lat": -20.430201,
    "lon": 57.683601,
    "tz": ""
  },
  "FLLS": {
    "icao": "",
    "iata": "LUN",
    "name": "Kenneth Kaunda International Airport",
    "city": "Lusaka",
    "state": "09",
    "country": "ZM",
    "elevation": 3779,
    "lat": -15.330833,
    "lon": 28.452722,
    "tz": ""
  },
  "FMEE": {
    "icao": "FMEE",
    "iata": "RUN",
    "name": "Roland Garros Airport",
    "city": "Sainte-Marie",
    "state": "SD",
    "country": "RE",
    "elevation": 66,
    "lat": -20.890087,
    "lon": 55.518894,
    "tz": ""
  },
  "FMMI": {
    "icao": "FMMI",
    "iata": "TNR",
    "name": "Ivato Airport",
    "city": "Antananarivo",
    "state": "T",
    "country": "MG",
    "elevation": 4198,
    "lat": -18.7969,
    "lon": 47.478802,
    "tz": ""
  },
  "FNLU": {
    "icao": "FNLU",
    "iata": "LAD",
    "name": "Quatro de Fevereiro International Airport",
    "city": "Luanda",
    "state": "LUA",
    "country": "AO",
    "elevation": 243,
    "lat": -8.85837,
    "lon": 13.2312,
    "tz": ""
  },
  "FPST": {
    "icao": "FPST",
    "iata": "TMS",
    "name": "São Tomé International Airport",
    "city": "São Tomé",
    "state": "01",
    "country": "ST",
    "elevation": 33,
    "lat": 0.378175,
    "lon": 6.71215,
    "tz": ""
  },
  "FQMA": {
    "icao": "FQMA",
    "iata": "MPM",
    "name": "Maputo Airport",
    "city": "Maputo",
    "state": "MPM",
    "country": "MZ",
    "elevation": 145,
    "lat": -25.920799,
    "lon": 32.572601,
    "tz": ""
  },
  "FSIA": {
    "icao": "FSIA",
    "iata": "SEZ",
    "name": "Seychelles International Airport",
    "city": "Mahe Island",
    "state": "20",
    "country": "SC",
    "elevation": 10,
    "lat": -4.67434,
    "lon": 55.521801,
    "tz": ""
  },
  "FTTJ": {
    "icao": "FTTJ",
    "iata": "NDJ",
    "name": "N'Djamena International Airport",
    "city": "N'Djamena",
    "state": "ND",
    "country": "TD",
    "elevation": 968,
    "lat": 12.1337,
    "lon": 15.034,
    "tz": ""
  },
  "FVHA": {
    "icao": "",
    "iata": "HRE",
    "name": "Robert Gabriel Mugabe International Airport",
    "city": "Harare",
    "state": "HA",
    "country": "ZW",
    "elevation": 4887,
    "lat": -17.931801,
    "lon": 31.0928,
    "tz": ""
  },
  "FYWH": {
    "icao": "FYWH",
    "iata": "WDH",
    "name": "Hosea Kutako International Airport",
    "city": "Windhoek",
    "state": "KH",
    "country": "NA",
    "elevation": 5640,
    "lat": -22.4799,
    "lon": 17.4709,
    "tz": ""
  },
  "FZAA": {
    "icao": "FZAA",
    "iata": "FIH",
    "name": "Ndjili International Airport",
    "city": "Kinshasa",
    "state": "KN",
    "country": "CD",
    "elevation": 1027,
    "lat": -4.38575,
    "lon": 15.4446,
    "tz": ""
  },
  "GABS": {
    "icao": "GABS",
    "iata": "BKO",
    "name": "Modibo Keita International Airport",
    "city": "Bamako",
    "state": "2",
    "country": "ML",
    "elevation": 1247,
    "lat": 12.5335,
    "lon": -7.94994,
    "tz": ""
  },
  "GBYD": {
    "icao": "GBYD",
    "iata": "BJL",
    "name": "Banjul International Airport",
    "city": "Yundum",
    "state": "W",
    "country": "GM",
    "elevation": 95,
    "lat": 13.338,
    "lon": -16.652201,
    "tz": ""
  },
  "GCFV": {
    "icao": "GCFV",
    "iata": "FUE",
    "name": "Fuerteventura Airport",
    "city": "El Matorral",
    "state": "CN",
    "country": "ES",
    "elevation": 85,
    "lat": 28.4527,
    "lon": -13.8638,
    "tz": ""
  },
  "GCLP": {
    "icao": "GCLP",
    "iata": "LPA",
    "name": "Gran Canaria Airport",
    "city": "Gran Canaria Island",
    "state": "CN",
    "country": "ES",
    "elevation": 78,
    "lat": 27.9319,
    "lon": -15.3866,
    "tz": ""
  },
  "GCRR": {
    "icao": "GCRR",
    "iata": "ACE",
    "name": "César Manrique-Lanzarote Airport",
    "city": "San Bartolomé",
    "state": "CN",
    "country": "ES",
    "elevation": 46,
    "lat": 28.945499,
    "lon": -13.6052,
    "tz": ""
  },
  "GCTS": {
    "icao": "GCTS",
    "iata": "TFS",
    "name": "Tenerife Sur Airport",
    "city": "Tenerife",
    "state": "CN",
    "country": "ES",
    "elevation": 209,
    "lat": 28.0445,
    "lon": -16.5725,
    "tz": ""
  },
  "GFLL": {
    "icao": "GFLL",
    "iata": "FNA",
    "name": "Lungi International Airport",
    "city": "Freetown (Lungi-Town)",
    "state": "N",
    "country": "SL",
    "elevation": 84,
    "lat": 8.61644,
    "lon": -13.1955,
    "tz": ""
  },
  "GLRB": {
    "icao": "GLRB",
    "iata": "ROB",
    "name": "Roberts International Airport",
    "city": "Monrovia",
    "state": "MG",
    "country": "LR",
    "elevation": 31,
    "lat": 6.23379,
    "lon": -10.3623,
    "tz": ""
  },
  "GMAD": {
    "icao": "GMAD",
    "iata": "AGA",
    "name": "Al Massira Airport",
    "city": "Agadir (Temsia)",
    "state": "09",
    "country": "MA",
    "elevation": 250,
    "lat": 30.322478,
    "lon": -9.412003,
    "tz": ""
  },
  "GMFF": {
    "icao": "GMFF",
    "iata": "FEZ",
    "name": "Fes Saïss International Airport",
    "city": "Saïss",
    "state": "03",
    "country": "MA",
    "elevation": 1900,
    "lat": 33.927299,
    "lon": -4.97796,
    "tz": ""
  },
  "GMME": {
    "icao": "GMME",
    "iata": "RBA",
    "name": "Rabat-Salé Airport",
    "city": "Rabat",
    "state": "04",
    "country": "MA",
    "elevation": 276,
    "lat": 34.051498,
    "lon": -6.75152,
    "tz": ""
  },
  "GMMN": {
    "icao": "GMMN",
    "iata": "CMN",
    "name": "Mohammed V International Airport",
    "city": "Casablanca",
    "state": "06",
    "country": "MA",
    "elevation": 656,
    "lat": 33.3675,
    "lon": -7.58997,
    "tz": ""
  },
  "GMMX": {
    "icao": "GMMX",
    "iata": "RAK",
    "name": "Menara Airport",
    "city": "Marrakech",
    "state": "07",
    "country": "MA",
    "elevation": 1545,
    "lat": 31.606899,
    "lon": -8.0363,
    "tz": ""
  },
  "GMTT": {
    "icao": "GMTT",
    "iata": "TNG",
    "name": "Tangier Ibn Battuta Airport",
    "city": "Tangier",
    "state": "01",
    "country": "MA",
    "elevation": 62,
    "lat": 35.731741,
    "lon": -5.921459,
    "tz": ""
  },
  "GOBD": {
    "icao": "GOBD",
    "iata": "DSS",
    "name": "Blaise Diagne International Airport",
    "city": "Dakar",
    "state": "DK",
    "country": "SN",
    "elevation": 290,
    "lat": 14.670878,
    "lon": -17.072829,
    "tz": ""
  },
  "GQNO": {
    "icao": "GQNO",
    "iata": "NKC",
    "name": "Nouakchott–Oumtounsy International Airport",
    "city": "Nouakchott",
    "state": "NKC",
    "country": "MR",
    "elevation": 9,
    "lat": 18.31,
    "lon": -15.969722,
    "tz": ""
  },
  "GVAC": {
    "icao": "GVAC",
    "iata": "SID",
    "name": "Amílcar Cabral International Airport",
    "city": "Espargos",
    "state": "B",
    "country": "CV",
    "elevation": 177,
    "lat": 16.7414,
    "lon": -22.9494,
    "tz": ""
  },
  "GVNP": {
    "icao": "GVNP",
    "iata": "RAI",
    "name": "Nelson Mandela International Airport",
    "city": "Praia",
    "state": "S",
    "country": "CV",
    "elevation": 230,
    "lat": 14.941126,
    "lon": -23.484728,
    "tz": ""
  },
  "HAAB": {
    "icao": "HAAB",
    "iata": "ADD",
    "name": "Addis Ababa Bole International Airport",
    "city": "Addis Ababa",
    "state": "AA",
    "country": "ET",
    "elevation": 7630,
    "lat": 8.97789,
    "lon": 38.799301,
    "tz": ""
  },
  "HDAM": {
    "icao": "HDAM",
    "iata": "JIB",
    "name": "Djibouti-Ambouli Airport",
    "city": "Djibouti City",
    "state": "DJ",
    "country": "DJ",
    "elevation": 49,
    "lat": 11.5473,
    "lon": 43.1595,
    "tz": ""
  },
  "HECA": {
    "icao": "HECA",
    "iata": "CAI",
    "name": "Cairo International Airport",
    "city": "Cairo",
    "state": "C",
    "country": "EG",
    "elevation": 322,
    "lat": 30.111534,
    "lon": 31.396694,
    "tz": ""
  },
  "HEGN": {
    "icao": "HEGN",
    "iata": "HRG",
    "name": "Hurghada International Airport",
    "city": "Hurghada",
    "state": "BA",
    "country": "EG",
    "elevation": 32,
    "lat": 27.176776,
    "lon": 33.796692,
    "tz": ""
  },
  "HESG": {
    "icao": "HESG",
    "iata": "HMB",
    "name": "Suhaj Mubarak International Airport",
    "city": "Suhaj",
    "state": "SHG",
    "country": "EG",
    "elevation": 322,
    "lat": 26.342515,
    "lon": 31.743017,
    "tz": ""
  },
  "HESH": {
    "icao": "HESH",
    "iata": "SSH",
    "name": "Sharm El Sheikh International Airport",
    "city": "Sharm El Sheikh",
    "state": "JS",
    "country": "EG",
    "elevation": 191,
    "lat": 27.977272,
    "lon": 34.394717,
    "tz": ""
  },
  "HJJJ": {
    "icao": "HJJJ",
    "iata": "JUB",
    "name": "Juba International Airport",
    "city": "Juba",
    "state": "EC",
    "country": "SS",
    "elevation": 1513,
    "lat": 4.87201,
    "lon": 31.601101,
    "tz": ""
  },
  "HKJK": {
    "icao": "HKJK",
    "iata": "NBO",
    "name": "Jomo Kenyatta International Airport",
    "city": "Nairobi",
    "state": "110",
    "country": "KE",
    "elevation": 5330,
    "lat": -1.31923997402,
    "lon": 36.9277992249,
    "tz": ""
  },
  "HKMO": {
    "icao": "HKMO",
    "iata": "MBA",
    "name": "Moi International Airport",
    "city": "Mombasa",
    "state": "300",
    "country": "KE",
    "elevation": 200,
    "lat": -4.03483,
    "lon": 39.5942,
    "tz": ""
  },
  "HLLM": {
    "icao": "HLLM",
    "iata": "MJI",
    "name": "Mitiga International Airport",
    "city": "Tripoli",
    "state": "TB",
    "country": "LY",
    "elevation": 36,
    "lat": 32.89177,
    "lon": 13.287878,
    "tz": ""
  },
  "HRYR": {
    "icao": "HRYR",
    "iata": "KGL",
    "name": "Kigali International Airport",
    "city": "Kigali",
    "state": "01",
    "country": "RW",
    "elevation": 4859,
    "lat": -1.96863,
    "lon": 30.1395,
    "tz": ""
  },
  "HSSK": {
    "icao": "HSSK",
    "iata": "KRT",
    "name": "Khartoum International Airport",
    "city": "Khartoum",
    "state": "03",
    "country": "SD",
    "elevation": 1265,
    "lat": 15.5895,
    "lon": 32.5532,
    "tz": ""
  },
  "HTDA": {
    "icao": "HTDA",
    "iata": "DAR",
    "name": "Julius Nyerere International Airport",
    "city": "Dar es Salaam",
    "state": "02",
    "country": "TZ",
    "elevation": 182,
    "lat": -6.87811,
    "lon": 39.202599,
    "tz": ""
  },
  "HTZA": {
    "icao": "HTZA",
    "iata": "ZNZ",
    "name": "Abeid Amani Karume International Airport",
    "city": "Zanzibar",
    "state": "07",
    "country": "TZ",
    "elevation": 54,
    "lat": -6.22202,
    "lon": 39.224899,
    "tz": ""
  },
  "HUEN": {
    "icao": "HUEN",
    "iata": "EBB",
    "name": "Entebbe International Airport",
    "city": "Kampala",
    "state": "C",
    "country": "UG",
    "elevation": 3782,
    "lat": 0.042386,
    "lon": 32.443501,
    "tz": ""
  },
  "ID-0277": {
    "icao": "",
    "iata": "DHX",
    "name": "Dhoho International Airport",
    "city": "Kediri",
    "state": "JI",
    "country": "ID",
    "elevation": 380,
    "lat": -7.750278,
    "lon": 111.947222,
    "tz": ""
  },
  "IN-0276": {
    "icao": "",
    "iata": "NMI",
    "name": "Navi Mumbai International Airport",
    "city": "Navi Mumbai",
    "state": "MM",
    "country": "IN",
    "elevation": 184,
    "lat": 18.988686,
    "lon": 73.068523,
    "tz": ""
  },
  "KABQ": {
    "icao": "KABQ",
    "iata": "ABQ",
    "name": "Albuquerque International Sunport",
    "city": "Albuquerque",
    "state": "NM",
    "country": "US",
    "elevation": 5355,
    "lat": 35.039976,
    "lon": -106.608925,
    "tz": ""
  },
  "KADW": {
    "icao": "KADW",
    "iata": "ADW",
    "name": "Joint Base Andrews",
    "city": "Camp Springs",
    "state": "MD",
    "country": "US",
    "elevation": 280,
    "lat": 38.810799,
    "lon": -76.866997,
    "tz": ""
  },
  "KATL": {
    "icao": "KATL",
    "iata": "ATL",
    "name": "Hartsfield Jackson Atlanta International Airport",
    "city": "Atlanta",
    "state": "GA",
    "country": "US",
    "elevation": 1026,
    "lat": 33.6367,
    "lon": -84.428101,
    "tz": ""
  },
  "KAUS": {
    "icao": "KAUS",
    "iata": "AUS",
    "name": "Austin Bergstrom International Airport",
    "city": "Austin",
    "state": "TX",
    "country": "US",
    "elevation": 542,
    "lat": 30.197535,
    "lon": -97.662015,
    "tz": ""
  },
  "KBDL": {
    "icao": "KBDL",
    "iata": "BDL",
    "name": "Bradley International Airport",
    "city": "Hartford",
    "state": "CT",
    "country": "US",
    "elevation": 173,
    "lat": 41.93851,
    "lon": -72.688066,
    "tz": ""
  },
  "KBNA": {
    "icao": "KBNA",
    "iata": "BNA",
    "name": "Nashville International Airport",
    "city": "Nashville",
    "state": "TN",
    "country": "US",
    "elevation": 599,
    "lat": 36.1245,
    "lon": -86.6782,
    "tz": ""
  },
  "KBOS": {
    "icao": "KBOS",
    "iata": "BOS",
    "name": "Logan International Airport",
    "city": "Boston",
    "state": "MA",
    "country": "US",
    "elevation": 20,
    "lat": 42.36197,
    "lon": -71.0079,
    "tz": ""
  },
  "KBUF": {
    "icao": "KBUF",
    "iata": "BUF",
    "name": "Buffalo Niagara International Airport",
    "city": "Buffalo",
    "state": "NY",
    "country": "US",
    "elevation": 728,
    "lat": 42.940498,
    "lon": -78.732201,
    "tz": ""
  },
  "KBWI": {
    "icao": "KBWI",
    "iata": "BWI",
    "name": "Baltimore/Washington International Thurgood Marshall Airport",
    "city": "Baltimore",
    "state": "MD",
    "country": "US",
    "elevation": 146,
    "lat": 39.1754,
    "lon": -76.668297,
    "tz": ""
  },
  "KCLE": {
    "icao": "KCLE",
    "iata": "CLE",
    "name": "Cleveland Hopkins International Airport",
    "city": "Cleveland",
    "state": "OH",
    "country": "US",
    "elevation": 791,
    "lat": 41.411701,
    "lon": -81.8498,
    "tz": ""
  },
  "KCLT": {
    "icao": "KCLT",
    "iata": "CLT",
    "name": "Charlotte Douglas International Airport",
    "city": "Charlotte",
    "state": "NC",
    "country": "US",
    "elevation": 748,
    "lat": 35.2140007019043,
    "lon": -80.94309997558594,
    "tz": ""
  },
  "KCMH": {
    "icao": "KCMH",
    "iata": "CMH",
    "name": "John Glenn Columbus International Airport",
    "city": "Columbus",
    "state": "OH",
    "country": "US",
    "elevation": 815,
    "lat": 39.998001,
    "lon": -82.891899,
    "tz": ""
  },
  "KCVG": {
    "icao": "KCVG",
    "iata": "CVG",
    "name": "Cincinnati Northern Kentucky International Airport",
    "city": "Cincinnati / Covington",
    "state": "KY",
    "country": "US",
    "elevation": 896,
    "lat": 39.048801,
    "lon": -84.667801,
    "tz": ""
  },
  "KDCA": {
    "icao": "KDCA",
    "iata": "DCA",
    "name": "Ronald Reagan Washington National Airport",
    "city": "Washington",
    "state": "DC",
    "country": "US",
    "elevation": 15,
    "lat": 38.8521,
    "lon": -77.037697,
    "tz": ""
  },
  "KDEN": {
    "icao": "KDEN",
    "iata": "DEN",
    "name": "Denver International Airport",
    "city": "Denver",
    "state": "CO",
    "country": "US",
    "elevation": 5431,
    "lat": 39.861698150635,
    "lon": -104.672996521,
    "tz": ""
  },
  "KDFW": {
    "icao": "KDFW",
    "iata": "DFW",
    "name": "Dallas Fort Worth International Airport",
    "city": "Dallas-Fort Worth",
    "state": "TX",
    "country": "US",
    "elevation": 607,
    "lat": 32.896801,
    "lon": -97.038002,
    "tz": ""
  },
  "KDTW": {
    "icao": "KDTW",
    "iata": "DTW",
    "name": "Detroit Metropolitan Wayne County Airport",
    "city": "Detroit",
    "state": "MI",
    "country": "US",
    "elevation": 645,
    "lat": 42.21377,
    "lon": -83.353786,
    "tz": ""
  },
  "KEWR": {
    "icao": "KEWR",
    "iata": "EWR",
    "name": "Newark Liberty International Airport",
    "city": "Newark",
    "state": "NJ",
    "country": "US",
    "elevation": 18,
    "lat": 40.692501,
    "lon": -74.168701,
    "tz": ""
  },
  "KFLL": {
    "icao": "KFLL",
    "iata": "FLL",
    "name": "Fort Lauderdale Hollywood International Airport",
    "city": "Fort Lauderdale",
    "state": "FL",
    "country": "US",
    "elevation": 9,
    "lat": 26.072599,
    "lon": -80.152702,
    "tz": ""
  },
  "KIAD": {
    "icao": "KIAD",
    "iata": "IAD",
    "name": "Washington Dulles International Airport",
    "city": "Dulles",
    "state": "VA",
    "country": "US",
    "elevation": 312,
    "lat": 38.9445,
    "lon": -77.455803,
    "tz": ""
  },
  "KIAH": {
    "icao": "KIAH",
    "iata": "IAH",
    "name": "George Bush Intercontinental Houston Airport",
    "city": "Houston",
    "state": "TX",
    "country": "US",
    "elevation": 97,
    "lat": 29.984399795532227,
    "lon": -95.34140014648438,
    "tz": ""
  },
  "KIND": {
    "icao": "KIND",
    "iata": "IND",
    "name": "Indianapolis International Airport",
    "city": "Indianapolis",
    "state": "IN",
    "country": "US",
    "elevation": 797,
    "lat": 39.7173,
    "lon": -86.294403,
    "tz": ""
  },
  "KJAX": {
    "icao": "KJAX",
    "iata": "JAX",
    "name": "Jacksonville International Airport",
    "city": "Jacksonville",
    "state": "FL",
    "country": "US",
    "elevation": 30,
    "lat": 30.492469,
    "lon": -81.687813,
    "tz": ""
  },
  "KJFK": {
    "icao": "KJFK",
    "iata": "JFK",
    "name": "John F Kennedy International Airport",
    "city": "New York",
    "state": "NY",
    "country": "US",
    "elevation": 13,
    "lat": 40.639447,
    "lon": -73.779317,
    "tz": ""
  },
  "KLAS": {
    "icao": "KLAS",
    "iata": "LAS",
    "name": "Harry Reid International Airport",
    "city": "Las Vegas",
    "state": "NV",
    "country": "US",
    "elevation": 2181,
    "lat": 36.083361,
    "lon": -115.151817,
    "tz": ""
  },
  "KLAX": {
    "icao": "KLAX",
    "iata": "LAX",
    "name": "Los Angeles International Airport",
    "city": "Los Angeles",
    "state": "CA",
    "country": "US",
    "elevation": 125,
    "lat": 33.942501,
    "lon": -118.407997,
    "tz": ""
  },
  "KLGA": {
    "icao": "KLGA",
    "iata": "LGA",
    "name": "LaGuardia Airport",
    "city": "New York",
    "state": "NY",
    "country": "US",
    "elevation": 21,
    "lat": 40.777199,
    "lon": -73.872597,
    "tz": ""
  },
  "KMCI": {
    "icao": "KMCI",
    "iata": "MCI",
    "name": "Kansas City International Airport",
    "city": "Kansas City",
    "state": "MO",
    "country": "US",
    "elevation": 1026,
    "lat": 39.2976,
    "lon": -94.713898,
    "tz": ""
  },
  "KMCO": {
    "icao": "KMCO",
    "iata": "MCO",
    "name": "Orlando International Airport",
    "city": "Orlando",
    "state": "FL",
    "country": "US",
    "elevation": 96,
    "lat": 28.429399490356445,
    "lon": -81.30899810791016,
    "tz": ""
  },
  "KMDW": {
    "icao": "KMDW",
    "iata": "MDW",
    "name": "Chicago Midway International Airport",
    "city": "Chicago",
    "state": "IL",
    "country": "US",
    "elevation": 620,
    "lat": 41.785999,
    "lon": -87.752403,
    "tz": ""
  },
  "KMEM": {
    "icao": "KMEM",
    "iata": "MEM",
    "name": "Memphis International Airport",
    "city": "Memphis",
    "state": "TN",
    "country": "US",
    "elevation": 341,
    "lat": 35.0424,
    "lon": -89.9767,
    "tz": ""
  },
  "KMIA": {
    "icao": "KMIA",
    "iata": "MIA",
    "name": "Miami International Airport",
    "city": "Miami",
    "state": "FL",
    "country": "US",
    "elevation": 8,
    "lat": 25.79319953918457,
    "lon": -80.29060363769531,
    "tz": ""
  },
  "KMKE": {
    "icao": "KMKE",
    "iata": "MKE",
    "name": "General Mitchell International Airport",
    "city": "Milwaukee",
    "state": "WI",
    "country": "US",
    "elevation": 723,
    "lat": 42.947201,
    "lon": -87.896599,
    "tz": ""
  },
  "KMSP": {
    "icao": "KMSP",
    "iata": "MSP",
    "name": "Minneapolis–Saint Paul International Airport / Wold–Chamberlain Field",
    "city": "Minneapolis",
    "state": "MN",
    "country": "US",
    "elevation": 841,
    "lat": 44.880081,
    "lon": -93.221741,
    "tz": ""
  },
  "KMSY": {
    "icao": "KMSY",
    "iata": "MSY",
    "name": "Louis Armstrong New Orleans International Airport",
    "city": "New Orleans",
    "state": "LA",
    "country": "US",
    "elevation": 4,
    "lat": 29.993401,
    "lon": -90.258003,
    "tz": ""
  },
  "KOAK": {
    "icao": "KOAK",
    "iata": "OAK",
    "name": "San Francisco Bay Oakland International Airport",
    "city": "Oakland",
    "state": "CA",
    "country": "US",
    "elevation": 9,
    "lat": 37.720085,
    "lon": -122.221184,
    "tz": ""
  },
  "KOKC": {
    "icao": "KOKC",
    "iata": "OKC",
    "name": "Will Rogers World Airport",
    "city": "Oklahoma City",
    "state": "OK",
    "country": "US",
    "elevation": 1295,
    "lat": 35.393388,
    "lon": -97.598248,
    "tz": ""
  },
  "KOMA": {
    "icao": "KOMA",
    "iata": "OMA",
    "name": "Eppley Airfield",
    "city": "Omaha",
    "state": "NE",
    "country": "US",
    "elevation": 984,
    "lat": 41.3032,
    "lon": -95.894096,
    "tz": ""
  },
  "KONT": {
    "icao": "KONT",
    "iata": "ONT",
    "name": "Ontario International Airport",
    "city": "Ontario",
    "state": "CA",
    "country": "US",
    "elevation": 944,
    "lat": 34.056,
    "lon": -117.600998,
    "tz": ""
  },
  "KORD": {
    "icao": "KORD",
    "iata": "ORD",
    "name": "Chicago O'Hare International Airport",
    "city": "Chicago",
    "state": "IL",
    "country": "US",
    "elevation": 680,
    "lat": 41.9786,
    "lon": -87.9048,
    "tz": ""
  },
  "KORF": {
    "icao": "KORF",
    "iata": "ORF",
    "name": "Norfolk International Airport",
    "city": "Norfolk",
    "state": "VA",
    "country": "US",
    "elevation": 26,
    "lat": 36.895341,
    "lon": -76.201,
    "tz": ""
  },
  "KPBI": {
    "icao": "KPBI",
    "iata": "PBI",
    "name": "Palm Beach International Airport",
    "city": "West Palm Beach",
    "state": "FL",
    "country": "US",
    "elevation": 19,
    "lat": 26.683201,
    "lon": -80.095596,
    "tz": ""
  },
  "KPDX": {
    "icao": "KPDX",
    "iata": "PDX",
    "name": "Portland International Airport",
    "city": "Portland",
    "state": "OR",
    "country": "US",
    "elevation": 31,
    "lat": 45.588699,
    "lon": -122.598,
    "tz": ""
  },
  "KPHL": {
    "icao": "KPHL",
    "iata": "PHL",
    "name": "Philadelphia International Airport",
    "city": "Philadelphia",
    "state": "PA",
    "country": "US",
    "elevation": 36,
    "lat": 39.871899,
    "lon": -75.241096,
    "tz": ""
  },
  "KPHX": {
    "icao": "KPHX",
    "iata": "PHX",
    "name": "Phoenix Sky Harbor International Airport",
    "city": "Phoenix",
    "state": "AZ",
    "country": "US",
    "elevation": 1135,
    "lat": 33.435302,
    "lon": -112.005905,
    "tz": ""
  },
  "KPIT": {
    "icao": "KPIT",
    "iata": "PIT",
    "name": "Pittsburgh International Airport",
    "city": "Pittsburgh",
    "state": "PA",
    "country": "US",
    "elevation": 1203,
    "lat": 40.491501,
    "lon": -80.232903,
    "tz": ""
  },
  "KPVD": {
    "icao": "KPVD",
    "iata": "PVD",
    "name": "Theodore Francis Green State Airport",
    "city": "Warwick",
    "state": "RI",
    "country": "US",
    "elevation": 55,
    "lat": 41.725038,
    "lon": -71.425668,
    "tz": ""
  },
  "KPWM": {
    "icao": "KPWM",
    "iata": "PWM",
    "name": "Portland International Jetport",
    "city": "Portland",
    "state": "ME",
    "country": "US",
    "elevation": 76,
    "lat": 43.646198,
    "lon": -70.309303,
    "tz": ""
  },
  "KRDU": {
    "icao": "KRDU",
    "iata": "RDU",
    "name": "Raleigh Durham International Airport",
    "city": "Raleigh/Durham",
    "state": "NC",
    "country": "US",
    "elevation": 435,
    "lat": 35.877602,
    "lon": -78.787498,
    "tz": ""
  },
  "KRIC": {
    "icao": "KRIC",
    "iata": "RIC",
    "name": "Richmond International Airport",
    "city": "Richmond",
    "state": "VA",
    "country": "US",
    "elevation": 167,
    "lat": 37.505199,
    "lon": -77.319702,
    "tz": ""
  },
  "KRNO": {
    "icao": "KRNO",
    "iata": "RNO",
    "name": "Reno Tahoe International Airport",
    "city": "Reno",
    "state": "NV",
    "country": "US",
    "elevation": 4415,
    "lat": 39.4991,
    "lon": -119.767998,
    "tz": ""
  },
  "KRSW": {
    "icao": "KRSW",
    "iata": "RSW",
    "name": "Southwest Florida International Airport",
    "city": "Fort Myers",
    "state": "FL",
    "country": "US",
    "elevation": 30,
    "lat": 26.53619956970215,
    "lon": -81.75520324707031,
    "tz": ""
  },
  "KSAN": {
    "icao": "KSAN",
    "iata": "SAN",
    "name": "San Diego International Airport",
    "city": "San Diego",
    "state": "CA",
    "country": "US",
    "elevation": 17,
    "lat": 32.7336006165,
    "lon": -117.190002441,
    "tz": ""
  },
  "KSAT": {
    "icao": "KSAT",
    "iata": "SAT",
    "name": "San Antonio International Airport",
    "city": "San Antonio",
    "state": "TX",
    "country": "US",
    "elevation": 809,
    "lat": 29.533701,
    "lon": -98.469803,
    "tz": ""
  },
  "KSAV": {
    "icao": "KSAV",
    "iata": "SAV",
    "name": "Savannah Hilton Head International Airport",
    "city": "Savannah",
    "state": "GA",
    "country": "US",
    "elevation": 50,
    "lat": 32.127602,
    "lon": -81.202103,
    "tz": ""
  },
  "KSDF": {
    "icao": "KSDF",
    "iata": "SDF",
    "name": "Louisville Muhammad Ali International Airport",
    "city": "Louisville",
    "state": "KY",
    "country": "US",
    "elevation": 501,
    "lat": 38.1744,
    "lon": -85.736,
    "tz": ""
  },
  "KSEA": {
    "icao": "KSEA",
    "iata": "SEA",
    "name": "Seattle–Tacoma International Airport",
    "city": "Seattle",
    "state": "WA",
    "country": "US",
    "elevation": 433,
    "lat": 47.447943,
    "lon": -122.310276,
    "tz": ""
  },
  "KSFB": {
    "icao": "KSFB",
    "iata": "SFB",
    "name": "Orlando Sanford International Airport",
    "city": "Orlando",
    "state": "FL",
    "country": "US",
    "elevation": 55,
    "lat": 28.777599334716797,
    "lon": -81.23750305175781,
    "tz": ""
  },
  "KSFO": {
    "icao": "KSFO",
    "iata": "SFO",
    "name": "San Francisco International Airport",
    "city": "San Francisco",
    "state": "CA",
    "country": "US",
    "elevation": 13,
    "lat": 37.619806,
    "lon": -122.374821,
    "tz": ""
  },
  "KSJC": {
    "icao": "KSJC",
    "iata": "SJC",
    "name": "Norman Y. Mineta San Jose International Airport",
    "city": "San Jose",
    "state": "CA",
    "country": "US",
    "elevation": 62,
    "lat": 37.362452,
    "lon": -121.929188,
    "tz": ""
  },
  "KSLC": {
    "icao": "KSLC",
    "iata": "SLC",
    "name": "Salt Lake City International Airport",
    "city": "Salt Lake City",
    "state": "UT",
    "country": "US",
    "elevation": 4227,
    "lat": 40.78886,
    "lon": -111.979866,
    "tz": ""
  },
  "KSMF": {
    "icao": "KSMF",
    "iata": "SMF",
    "name": "Sacramento International Airport",
    "city": "Sacramento",
    "state": "CA",
    "country": "US",
    "elevation": 27,
    "lat": 38.6954,
    "lon": -121.591003,
    "tz": ""
  },
  "KSNA": {
    "icao": "KSNA",
    "iata": "SNA",
    "name": "John Wayne Orange County International Airport",
    "city": "Santa Ana",
    "state": "CA",
    "country": "US",
    "elevation": 56,
    "lat": 33.675701,
    "lon": -117.867996,
    "tz": ""
  },
  "KSRQ": {
    "icao": "KSRQ",
    "iata": "SRQ",
    "name": "Sarasota Bradenton International Airport",
    "city": "Sarasota/Bradenton",
    "state": "FL",
    "country": "US",
    "elevation": 30,
    "lat": 27.394631,
    "lon": -82.554359,
    "tz": ""
  },
  "KSTL": {
    "icao": "KSTL",
    "iata": "STL",
    "name": "St. Louis Lambert International Airport",
    "city": "St Louis",
    "state": "MO",
    "country": "US",
    "elevation": 618,
    "lat": 38.748697,
    "lon": -90.370003,
    "tz": ""
  },
  "KSYR": {
    "icao": "KSYR",
    "iata": "SYR",
    "name": "Syracuse Hancock International Airport",
    "city": "Syracuse",
    "state": "NY",
    "country": "US",
    "elevation": 421,
    "lat": 43.11119842529297,
    "lon": -76.1063003540039,
    "tz": ""
  },
  "KTPA": {
    "icao": "KTPA",
    "iata": "TPA",
    "name": "Tampa International Airport",
    "city": "Tampa",
    "state": "FL",
    "country": "US",
    "elevation": 26,
    "lat": 27.9755,
    "lon": -82.533203,
    "tz": ""
  },
  "KTUL": {
    "icao": "KTUL",
    "iata": "TUL",
    "name": "Tulsa International Airport",
    "city": "Tulsa",
    "state": "OK",
    "country": "US",
    "elevation": 677,
    "lat": 36.19839859008789,
    "lon": -95.88809967041016,
    "tz": ""
  },
  "LATI": {
    "icao": "LATI",
    "iata": "TIA",
    "name": "Tirana International Airport Mother Teresa",
    "city": "Rinas",
    "state": "02",
    "country": "AL",
    "elevation": 126,
    "lat": 41.4147,
    "lon": 19.7206,
    "tz": ""
  },
  "LBBG": {
    "icao": "LBBG",
    "iata": "BOJ",
    "name": "Burgas Airport",
    "city": "Burgas",
    "state": "02",
    "country": "BG",
    "elevation": 135,
    "lat": 42.569917,
    "lon": 27.515173,
    "tz": ""
  },
  "LBSF": {
    "icao": "LBSF",
    "iata": "SOF",
    "name": "Sofia Airport",
    "city": "Sofia",
    "state": "22",
    "country": "BG",
    "elevation": 1742,
    "lat": 42.696357,
    "lon": 23.417671,
    "tz": ""
  },
  "LBWN": {
    "icao": "LBWN",
    "iata": "VAR",
    "name": "Varna Airport",
    "city": "Varna",
    "state": "03",
    "country": "BG",
    "elevation": 230,
    "lat": 43.232101,
    "lon": 27.8251,
    "tz": ""
  },
  "LCLK": {
    "icao": "LCLK",
    "iata": "LCA",
    "name": "Larnaca International Airport",
    "city": "Larnaca",
    "state": "04",
    "country": "CY",
    "elevation": 8,
    "lat": 34.875099,
    "lon": 33.624901,
    "tz": ""
  },
  "LDZA": {
    "icao": "LDZA",
    "iata": "ZAG",
    "name": "Zagreb Franjo Tuđman International Airport",
    "city": "Velika Gorica",
    "state": "01",
    "country": "HR",
    "elevation": 353,
    "lat": 45.742901,
    "lon": 16.0688,
    "tz": ""
  },
  "LEAL": {
    "icao": "LEAL",
    "iata": "ALC",
    "name": "Alicante-Elche Miguel Hernández Airport",
    "city": "Alicante",
    "state": "VC",
    "country": "ES",
    "elevation": 142,
    "lat": 38.2822,
    "lon": -0.558156,
    "tz": ""
  },
  "LEBL": {
    "icao": "LEBL",
    "iata": "BCN",
    "name": "Josep Tarradellas Barcelona-El Prat Airport",
    "city": "Barcelona",
    "state": "CT",
    "country": "ES",
    "elevation": 12,
    "lat": 41.2971,
    "lon": 2.07846,
    "tz": ""
  },
  "LEIB": {
    "icao": "LEIB",
    "iata": "IBZ",
    "name": "Ibiza Airport",
    "city": "Ibiza (Eivissa)",
    "state": "IB",
    "country": "ES",
    "elevation": 24,
    "lat": 38.872898,
    "lon": 1.37312,
    "tz": ""
  },
  "LEMD": {
    "icao": "LEMD",
    "iata": "MAD",
    "name": "Adolfo Suárez Madrid–Barajas Airport",
    "city": "Madrid",
    "state": "MD",
    "country": "ES",
    "elevation": 1998,
    "lat": 40.471926,
    "lon": -3.56264,
    "tz": ""
  },
  "LEMG": {
    "icao": "LEMG",
    "iata": "AGP",
    "name": "Málaga-Costa del Sol Airport",
    "city": "Málaga",
    "state": "AN",
    "country": "ES",
    "elevation": 53,
    "lat": 36.6749,
    "lon": -4.49911,
    "tz": ""
  },
  "LEPA": {
    "icao": "LEPA",
    "iata": "PMI",
    "name": "Palma de Mallorca Airport",
    "city": "Palma de Mallorca",
    "state": "IB",
    "country": "ES",
    "elevation": 27,
    "lat": 39.551701,
    "lon": 2.73881,
    "tz": ""
  },
  "LEST": {
    "icao": "LEST",
    "iata": "SCQ",
    "name": "Santiago-Rosalía de Castro Airport",
    "city": "Santiago de Compostela",
    "state": "GA",
    "country": "ES",
    "elevation": 1213,
    "lat": 42.896301,
    "lon": -8.41514,
    "tz": ""
  },
  "LFBD": {
    "icao": "LFBD",
    "iata": "BOD",
    "name": "Bordeaux-Mérignac Airport",
    "city": "Bordeaux/Mérignac",
    "state": "NAQ",
    "country": "FR",
    "elevation": 162,
    "lat": 44.8283,
    "lon": -0.715556,
    "tz": ""
  },
  "LFBO": {
    "icao": "LFBO",
    "iata": "TLS",
    "name": "Toulouse-Blagnac Airport",
    "city": "Toulouse/Blagnac",
    "state": "OCC",
    "country": "FR",
    "elevation": 499,
    "lat": 43.629101,
    "lon": 1.36382,
    "tz": ""
  },
  "LFLL": {
    "icao": "LFLL",
    "iata": "LYS",
    "name": "Lyon Saint-Exupéry Airport",
    "city": "Colombier-Saugnieu, Rhône",
    "state": "ARA",
    "country": "FR",
    "elevation": 821,
    "lat": 45.725996,
    "lon": 5.090139,
    "tz": ""
  },
  "LFML": {
    "icao": "LFML",
    "iata": "MRS",
    "name": "Marseille Provence Airport",
    "city": "Marignane, Bouches-du-Rhône",
    "state": "PAC",
    "country": "FR",
    "elevation": 74,
    "lat": 43.438088,
    "lon": 5.2125,
    "tz": ""
  },
  "LFMN": {
    "icao": "LFMN",
    "iata": "NCE",
    "name": "Nice-Côte d'Azur Airport",
    "city": "Nice, Alpes-Maritimes",
    "state": "PAC",
    "country": "FR",
    "elevation": 12,
    "lat": 43.658401,
    "lon": 7.21587,
    "tz": ""
  },
  "LFPG": {
    "icao": "LFPG",
    "iata": "CDG",
    "name": "Charles de Gaulle International Airport",
    "city": "Paris (Roissy-en-France, Val-d'Oise)",
    "state": "IDF",
    "country": "FR",
    "elevation": 392,
    "lat": 49.012798,
    "lon": 2.55,
    "tz": ""
  },
  "LFPO": {
    "icao": "LFPO",
    "iata": "ORY",
    "name": "Paris-Orly Airport",
    "city": "Paris (Orly, Val-de-Marne)",
    "state": "IDF",
    "country": "FR",
    "elevation": 291,
    "lat": 48.72333,
    "lon": 2.37944,
    "tz": ""
  },
  "LFSB": {
    "icao": "LFSB",
    "iata": "BSL",
    "name": "EuroAirport Basel-Mulhouse-Freiburg",
    "city": "Saint-Louis",
    "state": "GES",
    "country": "FR",
    "elevation": 885,
    "lat": 47.60068,
    "lon": 7.521117,
    "tz": ""
  },
  "LGAV": {
    "icao": "LGAV",
    "iata": "ATH",
    "name": "Athens Eleftherios Venizelos International Airport",
    "city": "Spata-Artemida",
    "state": "I",
    "country": "GR",
    "elevation": 308,
    "lat": 37.936401,
    "lon": 23.9445,
    "tz": ""
  },
  "LGIR": {
    "icao": "LGIR",
    "iata": "HER",
    "name": "Heraklion International Nikos Kazantzakis Airport",
    "city": "Heraklion",
    "state": "M",
    "country": "GR",
    "elevation": 115,
    "lat": 35.339699,
    "lon": 25.1803,
    "tz": ""
  },
  "LGTS": {
    "icao": "LGTS",
    "iata": "SKG",
    "name": "Thessaloniki Macedonia International Airport",
    "city": "Thessaloniki",
    "state": "B",
    "country": "GR",
    "elevation": 22,
    "lat": 40.51928,
    "lon": 22.970009,
    "tz": ""
  },
  "LHBP": {
    "icao": "LHBP",
    "iata": "BUD",
    "name": "Budapest Liszt Ferenc International Airport",
    "city": "Budapest",
    "state": "BU",
    "country": "HU",
    "elevation": 495,
    "lat": 47.43018,
    "lon": 19.262393,
    "tz": ""
  },
  "LIBD": {
    "icao": "LIBD",
    "iata": "BRI",
    "name": "Bari Karol Wojtyła International Airport",
    "city": "Bari",
    "state": "75",
    "country": "IT",
    "elevation": 193,
    "lat": 41.138901,
    "lon": 16.760599,
    "tz": ""
  },
  "LIBR": {
    "icao": "LIBR",
    "iata": "BDS",
    "name": "Brindisi Airport",
    "city": "Brindisi",
    "state": "75",
    "country": "IT",
    "elevation": 47,
    "lat": 40.6576,
    "lon": 17.947001,
    "tz": ""
  },
  "LICC": {
    "icao": "LICC",
    "iata": "CTA",
    "name": "Catania-Fontanarossa Airport",
    "city": "Catania",
    "state": "82",
    "country": "IT",
    "elevation": 39,
    "lat": 37.466801,
    "lon": 15.0664,
    "tz": ""
  },
  "LICJ": {
    "icao": "LICJ",
    "iata": "PMO",
    "name": "Falcone–Borsellino Airport",
    "city": "Palermo",
    "state": "82",
    "country": "IT",
    "elevation": 65,
    "lat": 38.175999,
    "lon": 13.091,
    "tz": ""
  },
  "LIEE": {
    "icao": "LIEE",
    "iata": "CAG",
    "name": "Cagliari Elmas Airport",
    "city": "Cagliari",
    "state": "88",
    "country": "IT",
    "elevation": 13,
    "lat": 39.251499,
    "lon": 9.05428,
    "tz": ""
  },
  "LIMC": {
    "icao": "LIMC",
    "iata": "MXP",
    "name": "Milan Malpensa International Airport",
    "city": "Ferno (VA)",
    "state": "25",
    "country": "IT",
    "elevation": 768,
    "lat": 45.6306,
    "lon": 8.72811,
    "tz": ""
  },
  "LIME": {
    "icao": "LIME",
    "iata": "BGY",
    "name": "Milan Bergamo Airport / Antonio Locatelli Air Base",
    "city": "Orio al Serio (BG)",
    "state": "25",
    "country": "IT",
    "elevation": 782,
    "lat": 45.670725,
    "lon": 9.709223,
    "tz": ""
  },
  "LIMF": {
    "icao": "LIMF",
    "iata": "TRN",
    "name": "Turin Airport",
    "city": "Caselle Torinese (TO)",
    "state": "21",
    "country": "IT",
    "elevation": 989,
    "lat": 45.200802,
    "lon": 7.64963,
    "tz": ""
  },
  "LIMJ": {
    "icao": "LIMJ",
    "iata": "GOA",
    "name": "Genoa Cristoforo Colombo Airport",
    "city": "Genova (GE)",
    "state": "42",
    "country": "IT",
    "elevation": 13,
    "lat": 44.412039,
    "lon": 8.840732,
    "tz": ""
  },
  "LIPE": {
    "icao": "LIPE",
    "iata": "BLQ",
    "name": "Bologna Guglielmo Marconi Airport",
    "city": "Bologna",
    "state": "45",
    "country": "IT",
    "elevation": 123,
    "lat": 44.5354,
    "lon": 11.2887,
    "tz": ""
  },
  "LIPX": {
    "icao": "LIPX",
    "iata": "VRN",
    "name": "Verona Villafranca Valerio Catullo Airport",
    "city": "Caselle (VR)",
    "state": "34",
    "country": "IT",
    "elevation": 239,
    "lat": 45.394955,
    "lon": 10.887303,
    "tz": ""
  },
  "LIPZ": {
    "icao": "LIPZ",
    "iata": "VCE",
    "name": "Venice Marco Polo Airport",
    "city": "Venezia (VE)",
    "state": "34",
    "country": "IT",
    "elevation": 7,
    "lat": 45.505299,
    "lon": 12.3519,
    "tz": ""
  },
  "LIRF": {
    "icao": "LIRF",
    "iata": "FCO",
    "name": "Rome–Fiumicino Leonardo da Vinci International Airport",
    "city": "Rome",
    "state": "62",
    "country": "IT",
    "elevation": 13,
    "lat": 41.804532,
    "lon": 12.251998,
    "tz": ""
  },
  "LIRN": {
    "icao": "LIRN",
    "iata": "NAP",
    "name": "Naples International Airport",
    "city": "Napoli",
    "state": "72",
    "country": "IT",
    "elevation": 294,
    "lat": 40.886002,
    "lon": 14.2908,
    "tz": ""
  },
  "LIRP": {
    "icao": "LIRP",
    "iata": "PSA",
    "name": "Pisa International Airport",
    "city": "Pisa (PI)",
    "state": "52",
    "country": "IT",
    "elevation": 6,
    "lat": 43.683899,
    "lon": 10.3927,
    "tz": ""
  },
  "LIRQ": {
    "icao": "LIRQ",
    "iata": "FLR",
    "name": "Florence Airport, Peretola",
    "city": "Firenze (FI)",
    "state": "52",
    "country": "IT",
    "elevation": 142,
    "lat": 43.808558,
    "lon": 11.202822,
    "tz": ""
  },
  "LJLJ": {
    "icao": "LJLJ",
    "iata": "LJU",
    "name": "Ljubljana Jože Pučnik Airport",
    "city": "Zgornji Brnik",
    "state": "012",
    "country": "SI",
    "elevation": 1273,
    "lat": 46.223701,
    "lon": 14.4576,
    "tz": ""
  },
  "LKPR": {
    "icao": "LKPR",
    "iata": "PRG",
    "name": "Václav Havel Airport Prague",
    "city": "Prague",
    "state": "PR",
    "country": "CZ",
    "elevation": 1247,
    "lat": 50.100874,
    "lon": 14.259911,
    "tz": ""
  },
  "LLBG": {
    "icao": "LLBG",
    "iata": "TLV",
    "name": "Ben Gurion International Airport",
    "city": "Tel Aviv",
    "state": "M",
    "country": "IL",
    "elevation": 135,
    "lat": 32.011398,
    "lon": 34.8867,
    "tz": ""
  },
  "LLER": {
    "icao": "LLER",
    "iata": "ETM",
    "name": "Ramon International Airport",
    "city": "Eilat",
    "state": "D",
    "country": "IL",
    "elevation": 288,
    "lat": 29.727009,
    "lon": 35.014116,
    "tz": ""
  },
  "LMML": {
    "icao": "LMML",
    "iata": "MLA",
    "name": "Malta International Airport",
    "city": "Valletta",
    "state": "25",
    "country": "MT",
    "elevation": 300,
    "lat": 35.857498,
    "lon": 14.4775,
    "tz": ""
  },
  "LOWW": {
    "icao": "LOWW",
    "iata": "VIE",
    "name": "Vienna International Airport",
    "city": "Vienna",
    "state": "9",
    "country": "AT",
    "elevation": 600,
    "lat": 48.110298,
    "lon": 16.5697,
    "tz": ""
  },
  "LPFR": {
    "icao": "LPFR",
    "iata": "FAO",
    "name": "Faro Airport",
    "city": "Faro",
    "state": "08",
    "country": "PT",
    "elevation": 24,
    "lat": 37.0144004822,
    "lon": -7.96590995789,
    "tz": ""
  },
  "LPMA": {
    "icao": "LPMA",
    "iata": "FNC",
    "name": "Madeira International Airport Cristiano Ronaldo",
    "city": "Funchal",
    "state": "30",
    "country": "PT",
    "elevation": 192,
    "lat": 32.697899,
    "lon": -16.7745,
    "tz": ""
  },
  "LPPD": {
    "icao": "LPPD",
    "iata": "PDL",
    "name": "João Paulo II Airport",
    "city": "Ponta Delgada",
    "state": "20",
    "country": "PT",
    "elevation": 259,
    "lat": 37.7411994934,
    "lon": -25.6979007721,
    "tz": ""
  },
  "LPPR": {
    "icao": "LPPR",
    "iata": "OPO",
    "name": "Francisco de Sá Carneiro Airport",
    "city": "Porto",
    "state": "13",
    "country": "PT",
    "elevation": 228,
    "lat": 41.2481002808,
    "lon": -8.68138980865,
    "tz": ""
  },
  "LPPT": {
    "icao": "LPPT",
    "iata": "LIS",
    "name": "Humberto Delgado Airport (Lisbon Portela Airport)",
    "city": "Lisbon",
    "state": "11",
    "country": "PT",
    "elevation": 374,
    "lat": 38.7813,
    "lon": -9.13592,
    "tz": ""
  },
  "LQSA": {
    "icao": "LQSA",
    "iata": "SJJ",
    "name": "Sarajevo International Airport",
    "city": "Sarajevo",
    "state": "BIH",
    "country": "BA",
    "elevation": 1708,
    "lat": 43.8246,
    "lon": 18.331499,
    "tz": ""
  },
  "LROP": {
    "icao": "LROP",
    "iata": "OTP",
    "name": "Bucharest Henri Coandă International Airport",
    "city": "Otopeni",
    "state": "IF",
    "country": "RO",
    "elevation": 314,
    "lat": 44.572127,
    "lon": 26.103396,
    "tz": ""
  },
  "LSGG": {
    "icao": "LSGG",
    "iata": "GVA",
    "name": "Geneva Cointrin International Airport",
    "city": "Geneva",
    "state": "GE",
    "country": "CH",
    "elevation": 1411,
    "lat": 46.238098,
    "lon": 6.10895,
    "tz": ""
  },
  "LSZH": {
    "icao": "LSZH",
    "iata": "ZRH",
    "name": "Zürich Airport",
    "city": "Zurich",
    "state": "ZH",
    "country": "CH",
    "elevation": 1417,
    "lat": 47.458056,
    "lon": 8.548056,
    "tz": ""
  },
  "LTAC": {
    "icao": "LTAC",
    "iata": "ESB",
    "name": "Esenboğa International Airport",
    "city": "Ankara",
    "state": "06",
    "country": "TR",
    "elevation": 3125,
    "lat": 40.128101,
    "lon": 32.995098,
    "tz": ""
  },
  "LTAI": {
    "icao": "LTAI",
    "iata": "AYT",
    "name": "Antalya International Airport",
    "city": "Antalya",
    "state": "07",
    "country": "TR",
    "elevation": 177,
    "lat": 36.898701,
    "lon": 30.800501,
    "tz": ""
  },
  "LTBJ": {
    "icao": "LTBJ",
    "iata": "ADB",
    "name": "Adnan Menderes International Airport",
    "city": "Gaziemir",
    "state": "35",
    "country": "TR",
    "elevation": 412,
    "lat": 38.2924,
    "lon": 27.157,
    "tz": ""
  },
  "LTBS": {
    "icao": "LTBS",
    "iata": "DLM",
    "name": "Dalaman International Airport",
    "city": "Dalaman",
    "state": "48",
    "country": "TR",
    "elevation": 20,
    "lat": 36.7131004333,
    "lon": 28.7924995422,
    "tz": ""
  },
  "LTDB": {
    "icao": "LTDB",
    "iata": "COV",
    "name": "Çukurova International Airport",
    "city": "Tarsus",
    "state": "33",
    "country": "TR",
    "elevation": 35,
    "lat": 36.890908,
    "lon": 35.070522,
    "tz": ""
  },
  "LTFE": {
    "icao": "LTFE",
    "iata": "BJV",
    "name": "Milas Bodrum International Airport",
    "city": "Bodrum",
    "state": "48",
    "country": "TR",
    "elevation": 21,
    "lat": 37.250599,
    "lon": 27.664301,
    "tz": ""
  },
  "LTFJ": {
    "icao": "LTFJ",
    "iata": "SAW",
    "name": "Istanbul Sabiha Gökçen International Airport",
    "city": "Pendik, Istanbul",
    "state": "34",
    "country": "TR",
    "elevation": 312,
    "lat": 40.898602,
    "lon": 29.3092,
    "tz": ""
  },
  "LTFM": {
    "icao": "LTFM",
    "iata": "IST",
    "name": "İstanbul Airport",
    "city": "Arnavutköy, Istanbul",
    "state": "34",
    "country": "TR",
    "elevation": 325,
    "lat": 41.261297,
    "lon": 28.741951,
    "tz": ""
  },
  "LWSK": {
    "icao": "LWSK",
    "iata": "SKP",
    "name": "Skopje International Airport",
    "city": "Ilinden",
    "state": "008",
    "country": "MK",
    "elevation": 781,
    "lat": 41.958087,
    "lon": 21.622581,
    "tz": ""
  },
  "LXGB": {
    "icao": "LXGB",
    "iata": "GIB",
    "name": "Gibraltar Airport",
    "city": "Gibraltar",
    "state": "U",
    "country": "GI",
    "elevation": 12,
    "lat": 36.151199,
    "lon": -5.34966,
    "tz": ""
  },
  "LYBE": {
    "icao": "LYBE",
    "iata": "BEG",
    "name": "Belgrade Nikola Tesla Airport",
    "city": "Belgrade",
    "state": "00",
    "country": "RS",
    "elevation": 335,
    "lat": 44.818401,
    "lon": 20.309099,
    "tz": ""
  },
  "LYPG": {
    "icao": "LYPG",
    "iata": "TGD",
    "name": "Podgorica Airport / Podgorica Golubovci Airbase",
    "city": "Podgorica",
    "state": "16",
    "country": "ME",
    "elevation": 141,
    "lat": 42.359402,
    "lon": 19.2519,
    "tz": ""
  },
  "LZIB": {
    "icao": "LZIB",
    "iata": "BTS",
    "name": "M. R. Štefánik Airport",
    "city": "Bratislava",
    "state": "BL",
    "country": "SK",
    "elevation": 436,
    "lat": 48.1702,
    "lon": 17.2127,
    "tz": ""
  },
  "MBPV": {
    "icao": "MBPV",
    "iata": "PLS",
    "name": "Providenciales International Airport",
    "city": "Providenciales",
    "state": "PR",
    "country": "TC",
    "elevation": 15,
    "lat": 21.773697,
    "lon": -72.268321,
    "tz": ""
  },
  "MDLR": {
    "icao": "MDLR",
    "iata": "LRM",
    "name": "Casa De Campo International Airport",
    "city": "La Romana",
    "state": "12",
    "country": "DO",
    "elevation": 213,
    "lat": 18.452222,
    "lon": -68.911111,
    "tz": ""
  },
  "MDPC": {
    "icao": "MDPC",
    "iata": "PUJ",
    "name": "Punta Cana International Airport",
    "city": "Punta Cana",
    "state": "11",
    "country": "DO",
    "elevation": 47,
    "lat": 18.5674,
    "lon": -68.363403,
    "tz": ""
  },
  "MDSD": {
    "icao": "MDSD",
    "iata": "SDQ",
    "name": "Las Américas International Airport",
    "city": "Santo Domingo",
    "state": "01",
    "country": "DO",
    "elevation": 59,
    "lat": 18.42970085144,
    "lon": -69.668899536133,
    "tz": ""
  },
  "MGGT": {
    "icao": "MGGT",
    "iata": "GUA",
    "name": "La Aurora Airport",
    "city": "Guatemala City",
    "state": "GU",
    "country": "GT",
    "elevation": 4952,
    "lat": 14.5833,
    "lon": -90.527496,
    "tz": ""
  },
  "MKJP": {
    "icao": "MKJP",
    "iata": "KIN",
    "name": "Norman Manley International Airport",
    "city": "Kingston",
    "state": "01",
    "country": "JM",
    "elevation": 10,
    "lat": 17.935699462890625,
    "lon": -76.7874984741211,
    "tz": ""
  },
  "MMCZ": {
    "icao": "MMCZ",
    "iata": "CZM",
    "name": "Cozumel International Airport",
    "city": "Cozumel",
    "state": "ROO",
    "country": "MX",
    "elevation": 15,
    "lat": 20.514922,
    "lon": -86.928538,
    "tz": ""
  },
  "MMDO": {
    "icao": "MMDO",
    "iata": "DGO",
    "name": "General Guadalupe Victoria International Airport",
    "city": "Durango",
    "state": "DUR",
    "country": "MX",
    "elevation": 6104,
    "lat": 24.125468,
    "lon": -104.527938,
    "tz": ""
  },
  "MMGL": {
    "icao": "MMGL",
    "iata": "GDL",
    "name": "Guadalajara International Airport",
    "city": "Guadalajara",
    "state": "JAL",
    "country": "MX",
    "elevation": 5016,
    "lat": 20.523342,
    "lon": -103.310108,
    "tz": ""
  },
  "MMMD": {
    "icao": "MMMD",
    "iata": "MID",
    "name": "Manuel Crescencio Rejón International Airport",
    "city": "Mérida",
    "state": "YUC",
    "country": "MX",
    "elevation": 38,
    "lat": 20.930485,
    "lon": -89.645462,
    "tz": ""
  },
  "MMMX": {
    "icao": "MMMX",
    "iata": "MEX",
    "name": "Benito Juárez International Airport",
    "city": "Ciudad de México",
    "state": "DIF",
    "country": "MX",
    "elevation": 7316,
    "lat": 19.435137,
    "lon": -99.071328,
    "tz": ""
  },
  "MMMY": {
    "icao": "MMMY",
    "iata": "MTY",
    "name": "Monterrey International Airport",
    "city": "Monterrey",
    "state": "NLE",
    "country": "MX",
    "elevation": 1278,
    "lat": 25.778521,
    "lon": -100.106989,
    "tz": ""
  },
  "MMMZ": {
    "icao": "MMMZ",
    "iata": "MZT",
    "name": "General Rafael Buelna International Airport",
    "city": "Mazatlàn",
    "state": "SIN",
    "country": "MX",
    "elevation": 38,
    "lat": 23.161474,
    "lon": -106.264572,
    "tz": ""
  },
  "MMPR": {
    "icao": "MMPR",
    "iata": "PVR",
    "name": "Puerto Vallarta International Airport",
    "city": "Puerto Vallarta",
    "state": "JAL",
    "country": "MX",
    "elevation": 23,
    "lat": 20.679913,
    "lon": -105.254391,
    "tz": ""
  },
  "MMSD": {
    "icao": "MMSD",
    "iata": "SJD",
    "name": "Los Cabos International Airport",
    "city": "San José del Cabo",
    "state": "BCS",
    "country": "MX",
    "elevation": 374,
    "lat": 23.151919,
    "lon": -109.720731,
    "tz": ""
  },
  "MMSM": {
    "icao": "MMSM",
    "iata": "NLU",
    "name": "General Felipe Ángeles International Airport",
    "city": "Mexico City",
    "state": "MEX",
    "country": "MX",
    "elevation": 7369,
    "lat": 19.7357,
    "lon": -99.0257,
    "tz": ""
  },
  "MMTJ": {
    "icao": "MMTJ",
    "iata": "TIJ",
    "name": "General Abelardo L. Rodriguez International Airport",
    "city": "Tijuana",
    "state": "BCN",
    "country": "MX",
    "elevation": 489,
    "lat": 32.541043,
    "lon": -116.969976,
    "tz": ""
  },
  "MMUN": {
    "icao": "MMUN",
    "iata": "CUN",
    "name": "Cancún International Airport",
    "city": "Cancún",
    "state": "ROO",
    "country": "MX",
    "elevation": 22,
    "lat": 21.039444,
    "lon": -86.874304,
    "tz": ""
  },
  "MPTO": {
    "icao": "MPTO",
    "iata": "PTY",
    "name": "Tocumen International Airport",
    "city": "Tocumen",
    "state": "8",
    "country": "PA",
    "elevation": 135,
    "lat": 9.07136,
    "lon": -79.383499,
    "tz": ""
  },
  "MRLB": {
    "icao": "MRLB",
    "iata": "LIR",
    "name": "Guanacaste Airport",
    "city": "Liberia",
    "state": "G",
    "country": "CR",
    "elevation": 270,
    "lat": 10.5933,
    "lon": -85.544403,
    "tz": ""
  },
  "MROC": {
    "icao": "MROC",
    "iata": "SJO",
    "name": "Juan Santamaría International Airport",
    "city": "San José (Alajuela)",
    "state": "A",
    "country": "CR",
    "elevation": 3021,
    "lat": 9.99386,
    "lon": -84.208801,
    "tz": ""
  },
  "MSLP": {
    "icao": "MSLP",
    "iata": "SAL",
    "name": "Monseñor Óscar Arnulfo Romero International Airport",
    "city": "San Salvador (San Luis Talpa)",
    "state": "PA",
    "country": "SV",
    "elevation": 101,
    "lat": 13.4409,
    "lon": -89.055702,
    "tz": ""
  },
  "MTPP": {
    "icao": "MTPP",
    "iata": "PAP",
    "name": "Toussaint Louverture International Airport",
    "city": "Port-au-Prince",
    "state": "OU",
    "country": "HT",
    "elevation": 122,
    "lat": 18.580023,
    "lon": -72.292596,
    "tz": ""
  },
  "MUHA": {
    "icao": "MUHA",
    "iata": "HAV",
    "name": "José Martí International Airport",
    "city": "Havana",
    "state": "03",
    "country": "CU",
    "elevation": 210,
    "lat": 22.989200592041016,
    "lon": -82.40910339355469,
    "tz": ""
  },
  "MUVR": {
    "icao": "MUVR",
    "iata": "VRA",
    "name": "Juan Gualberto Gomez International Airport",
    "city": "Matanzas",
    "state": "04",
    "country": "CU",
    "elevation": 210,
    "lat": 23.034401,
    "lon": -81.435303,
    "tz": ""
  },
  "MWCR": {
    "icao": "MWCR",
    "iata": "GCM",
    "name": "Owen Roberts International Airport",
    "city": "George Town",
    "state": "GC",
    "country": "KY",
    "elevation": 8,
    "lat": 19.292801,
    "lon": -81.357697,
    "tz": ""
  },
  "MYNN": {
    "icao": "MYNN",
    "iata": "NAS",
    "name": "Lynden Pindling International Airport",
    "city": "Nassau",
    "state": "NP",
    "country": "BS",
    "elevation": 16,
    "lat": 25.039,
    "lon": -77.466202,
    "tz": ""
  },
  "MZBZ": {
    "icao": "MZBZ",
    "iata": "BZE",
    "name": "Philip S. W. Goldson International Airport",
    "city": "Belize City",
    "state": "BZ",
    "country": "BZ",
    "elevation": 15,
    "lat": 17.539951,
    "lon": -88.303556,
    "tz": ""
  },
  "NTAA": {
    "icao": "NTAA",
    "iata": "PPT",
    "name": "Faa'a International Airport",
    "city": "Papeete",
    "state": "U",
    "country": "PF",
    "elevation": 5,
    "lat": -17.553699,
    "lon": -149.606995,
    "tz": ""
  },
  "NVVV": {
    "icao": "NVVV",
    "iata": "VLI",
    "name": "Bauerfield International Airport",
    "city": "Port Vila",
    "state": "SEE",
    "country": "VU",
    "elevation": 70,
    "lat": -17.699301,
    "lon": 168.320007,
    "tz": ""
  },
  "NZAA": {
    "icao": "NZAA",
    "iata": "AKL",
    "name": "Auckland International Airport",
    "city": "Auckland",
    "state": "AUK",
    "country": "NZ",
    "elevation": 23,
    "lat": -37.01199,
    "lon": 174.786331,
    "tz": ""
  },
  "NZCH": {
    "icao": "NZCH",
    "iata": "CHC",
    "name": "Christchurch International Airport",
    "city": "Christchurch",
    "state": "CAN",
    "country": "NZ",
    "elevation": 123,
    "lat": -43.48939895629883,
    "lon": 172.53199768066406,
    "tz": ""
  },
  "NZWN": {
    "icao": "NZWN",
    "iata": "WLG",
    "name": "Wellington International Airport",
    "city": "Wellington",
    "state": "WGN",
    "country": "NZ",
    "elevation": 41,
    "lat": -41.327202,
    "lon": 174.804993,
    "tz": ""
  },
  "OBBI": {
    "icao": "OBBI",
    "iata": "BAH",
    "name": "Bahrain International Airport",
    "city": "Manama",
    "state": "15",
    "country": "BH",
    "elevation": 6,
    "lat": 26.267295,
    "lon": 50.63764,
    "tz": ""
  },
  "OEDF": {
    "icao": "OEDF",
    "iata": "DMM",
    "name": "King Fahd International Airport",
    "city": "Ad Dammam",
    "state": "04",
    "country": "SA",
    "elevation": 72,
    "lat": 26.471201,
    "lon": 49.797901,
    "tz": ""
  },
  "OEDR": {
    "icao": "OEDR",
    "iata": "DHA",
    "name": "King Abdulaziz Air Base",
    "city": "Dhahran",
    "state": "04",
    "country": "SA",
    "elevation": 84,
    "lat": 26.2654,
    "lon": 50.152,
    "tz": ""
  },
  "OEJN": {
    "icao": "OEJN",
    "iata": "JED",
    "name": "King Abdulaziz International Airport",
    "city": "Jeddah",
    "state": "02",
    "country": "SA",
    "elevation": 48,
    "lat": 21.6796,
    "lon": 39.156502,
    "tz": ""
  },
  "OEMA": {
    "icao": "OEMA",
    "iata": "MED",
    "name": "Prince Mohammad Bin Abdulaziz Airport",
    "city": "Medina",
    "state": "03",
    "country": "SA",
    "elevation": 2151,
    "lat": 24.5534,
    "lon": 39.705101,
    "tz": ""
  },
  "OERK": {
    "icao": "OERK",
    "iata": "RUH",
    "name": "King Khaled International Airport",
    "city": "Riyadh",
    "state": "01",
    "country": "SA",
    "elevation": 2049,
    "lat": 24.9576,
    "lon": 46.698799,
    "tz": ""
  },
  "OIIE": {
    "icao": "OIIE",
    "iata": "IKA",
    "name": "Imam Khomeini International Airport",
    "city": "Tehran",
    "state": "23",
    "country": "IR",
    "elevation": 3305,
    "lat": 35.416099548339844,
    "lon": 51.152198791503906,
    "tz": ""
  },
  "OIII": {
    "icao": "OIII",
    "iata": "THR",
    "name": "Mehrabad International Airport",
    "city": "Tehran",
    "state": "23",
    "country": "IR",
    "elevation": 3962,
    "lat": 35.68920135498047,
    "lon": 51.31340026855469,
    "tz": ""
  },
  "OIMM": {
    "icao": "OIMM",
    "iata": "MHD",
    "name": "Mashhad International Airport",
    "city": "Mashhad",
    "state": "09",
    "country": "IR",
    "elevation": 3263,
    "lat": 36.235198974609375,
    "lon": 59.64099884033203,
    "tz": ""
  },
  "OISS": {
    "icao": "OISS",
    "iata": "SYZ",
    "name": "Shiraz Shahid Dastghaib International Airport",
    "city": "Shiraz",
    "state": "07",
    "country": "IR",
    "elevation": 4927,
    "lat": 29.5392,
    "lon": 52.589802,
    "tz": ""
  },
  "OJAI": {
    "icao": "OJAI",
    "iata": "AMM",
    "name": "Queen Alia International Airport",
    "city": "Amman",
    "state": "AM",
    "country": "JO",
    "elevation": 2395,
    "lat": 31.7226009369,
    "lon": 35.9931983948,
    "tz": ""
  },
  "OKKK": {
    "icao": "OKKK",
    "iata": "KWI",
    "name": "Kuwait International Airport",
    "city": "Kuwait City",
    "state": "FA",
    "country": "KW",
    "elevation": 206,
    "lat": 29.226601,
    "lon": 47.968899,
    "tz": ""
  },
  "OLBA": {
    "icao": "OLBA",
    "iata": "BEY",
    "name": "Beirut Rafic Hariri International Airport",
    "city": "Beirut",
    "state": "JL",
    "country": "LB",
    "elevation": 87,
    "lat": 33.820899963378906,
    "lon": 35.488399505615234,
    "tz": ""
  },
  "OM-0003": {
    "icao": "",
    "iata": "DQM",
    "name": "Duqm International Airport",
    "city": "Duqm",
    "state": "WU",
    "country": "OM",
    "elevation": 364,
    "lat": 19.501944,
    "lon": 57.634167,
    "tz": ""
  },
  "OMAA": {
    "icao": "OMAA",
    "iata": "AUH",
    "name": "Zayed International Airport",
    "city": "Abu Dhabi",
    "state": "AZ",
    "country": "AE",
    "elevation": 88,
    "lat": 24.443764,
    "lon": 54.651718,
    "tz": ""
  },
  "OMDB": {
    "icao": "OMDB",
    "iata": "DXB",
    "name": "Dubai International Airport",
    "city": "Dubai",
    "state": "DU",
    "country": "AE",
    "elevation": 62,
    "lat": 25.2527999878,
    "lon": 55.3643989563,
    "tz": ""
  },
  "OMDW": {
    "icao": "OMDW",
    "iata": "DWC",
    "name": "Al Maktoum International Airport",
    "city": "Jebel Ali",
    "state": "DU",
    "country": "AE",
    "elevation": 114,
    "lat": 24.896356,
    "lon": 55.161389,
    "tz": ""
  },
  "OMSJ": {
    "icao": "OMSJ",
    "iata": "SHJ",
    "name": "Sharjah International Airport",
    "city": "Sharjah",
    "state": "SH",
    "country": "AE",
    "elevation": 111,
    "lat": 25.3286,
    "lon": 55.5172,
    "tz": ""
  },
  "OOMS": {
    "icao": "OOMS",
    "iata": "MCT",
    "name": "Muscat International Airport",
    "city": "Muscat",
    "state": "MA",
    "country": "OM",
    "elevation": 48,
    "lat": 23.5933,
    "lon": 58.284401,
    "tz": ""
  },
  "OPIS": {
    "icao": "OPIS",
    "iata": "ISB",
    "name": "Islamabad International Airport",
    "city": "Attock",
    "state": "PB",
    "country": "PK",
    "elevation": 1761,
    "lat": 33.549,
    "lon": 72.82566,
    "tz": ""
  },
  "OPKC": {
    "icao": "OPKC",
    "iata": "KHI",
    "name": "Jinnah International Airport",
    "city": "Karachi",
    "state": "SD",
    "country": "PK",
    "elevation": 100,
    "lat": 24.9065,
    "lon": 67.160797,
    "tz": ""
  },
  "OPLA": {
    "icao": "OPLA",
    "iata": "LHE",
    "name": "Allama Iqbal International Airport",
    "city": "Lahore",
    "state": "PB",
    "country": "PK",
    "elevation": 712,
    "lat": 31.521601,
    "lon": 74.403603,
    "tz": ""
  },
  "ORBI": {
    "icao": "ORBI",
    "iata": "BGW",
    "name": "Baghdad International Airport / New Al Muthana Air Base",
    "city": "Baghdad",
    "state": "BG",
    "country": "IQ",
    "elevation": 114,
    "lat": 33.262501,
    "lon": 44.2346,
    "tz": ""
  },
  "OSDI": {
    "icao": "OSDI",
    "iata": "DAM",
    "name": "Damascus International Airport",
    "city": "Damascus",
    "state": "DI",
    "country": "SY",
    "elevation": 2020,
    "lat": 33.4114990234375,
    "lon": 36.51559829711914,
    "tz": ""
  },
  "OTHH": {
    "icao": "OTHH",
    "iata": "DOH",
    "name": "Hamad International Airport",
    "city": "Doha",
    "state": "DA",
    "country": "QA",
    "elevation": 13,
    "lat": 25.273056,
    "lon": 51.608056,
    "tz": ""
  },
  "PANC": {
    "icao": "PANC",
    "iata": "ANC",
    "name": "Ted Stevens Anchorage International Airport",
    "city": "Anchorage",
    "state": "AK",
    "country": "US",
    "elevation": 152,
    "lat": 61.179004,
    "lon": -149.992561,
    "tz": ""
  },
  "PGUM": {
    "icao": "PGUM",
    "iata": "GUM",
    "name": "Antonio B. Won Pat International Airport",
    "city": "Hagåtña",
    "state": "U",
    "country": "GU",
    "elevation": 298,
    "lat": 13.4834,
    "lon": 144.796005,
    "tz": ""
  },
  "PHNL": {
    "icao": "PHNL",
    "iata": "HNL",
    "name": "Daniel K Inouye International Airport",
    "city": "Honolulu, Oahu",
    "state": "HI",
    "country": "US",
    "elevation": 13,
    "lat": 21.32062,
    "lon": -157.924228,
    "tz": ""
  },
  "PHOG": {
    "icao": "PHOG",
    "iata": "OGG",
    "name": "Kahului International Airport",
    "city": "Kahului",
    "state": "HI",
    "country": "US",
    "elevation": 54,
    "lat": 20.896263,
    "lon": -156.431837,
    "tz": ""
  },
  "RCKH": {
    "icao": "RCKH",
    "iata": "KHH",
    "name": "Kaohsiung International Airport",
    "city": "Kaohsiung (Xiaogang)",
    "state": "KHH",
    "country": "TW",
    "elevation": 31,
    "lat": 22.577101,
    "lon": 120.349998,
    "tz": ""
  },
  "RCTP": {
    "icao": "RCTP",
    "iata": "TPE",
    "name": "Taiwan Taoyuan International Airport",
    "city": "Taoyuan",
    "state": "TAO",
    "country": "TW",
    "elevation": 106,
    "lat": 25.0777,
    "lon": 121.233002,
    "tz": ""
  },
  "RJAA": {
    "icao": "RJAA",
    "iata": "NRT",
    "name": "Narita International Airport",
    "city": "Narita",
    "state": "12",
    "country": "JP",
    "elevation": 141,
    "lat": 35.764702,
    "lon": 140.386002,
    "tz": ""
  },
  "RJBB": {
    "icao": "RJBB",
    "iata": "KIX",
    "name": "Kansai International Airport",
    "city": "Osaka",
    "state": "27",
    "country": "JP",
    "elevation": 26,
    "lat": 34.427299,
    "lon": 135.244003,
    "tz": ""
  },
  "RJCC": {
    "icao": "RJCC",
    "iata": "CTS",
    "name": "New Chitose Airport",
    "city": "Sapporo",
    "state": "01",
    "country": "JP",
    "elevation": 82,
    "lat": 42.7752,
    "lon": 141.692001,
    "tz": ""
  },
  "RJFF": {
    "icao": "RJFF",
    "iata": "FUK",
    "name": "Fukuoka Airport",
    "city": "Fukuoka",
    "state": "40",
    "country": "JP",
    "elevation": 32,
    "lat": 33.585899353027344,
    "lon": 130.4510040283203,
    "tz": ""
  },
  "RJFK": {
    "icao": "RJFK",
    "iata": "KOJ",
    "name": "Kagoshima Airport",
    "city": "Kagoshima",
    "state": "46",
    "country": "JP",
    "elevation": 906,
    "lat": 31.8034,
    "lon": 130.718994,
    "tz": ""
  },
  "RJGG": {
    "icao": "RJGG",
    "iata": "NGO",
    "name": "Chubu Centrair International Airport",
    "city": "Tokoname",
    "state": "23",
    "country": "JP",
    "elevation": 15,
    "lat": 34.858398,
    "lon": 136.804993,
    "tz": ""
  },
  "RJOO": {
    "icao": "RJOO",
    "iata": "ITM",
    "name": "Osaka International Airport",
    "city": "Osaka",
    "state": "27",
    "country": "JP",
    "elevation": 50,
    "lat": 34.7855,
    "lon": 135.438004,
    "tz": ""
  },
  "RJSS": {
    "icao": "RJSS",
    "iata": "SDJ",
    "name": "Sendai Airport",
    "city": "Natori",
    "state": "04",
    "country": "JP",
    "elevation": 15,
    "lat": 38.139702,
    "lon": 140.917007,
    "tz": ""
  },
  "RJTT": {
    "icao": "RJTT",
    "iata": "HND",
    "name": "Tokyo Haneda International Airport",
    "city": "Tokyo",
    "state": "13",
    "country": "JP",
    "elevation": 35,
    "lat": 35.552299,
    "lon": 139.779999,
    "tz": ""
  },
  "RJTY": {
    "icao": "",
    "iata": "OKO",
    "name": "Yokota Air Base",
    "city": "Fussa",
    "state": "13",
    "country": "JP",
    "elevation": 463,
    "lat": 35.748501,
    "lon": 139.348007,
    "tz": ""
  },
  "RKJB": {
    "icao": "RKJB",
    "iata": "MWX",
    "name": "Muan International Airport",
    "city": "Muan (Piseo-ri)",
    "state": "46",
    "country": "KR",
    "elevation": 35,
    "lat": 34.991406,
    "lon": 126.382814,
    "tz": ""
  },
  "RKPC": {
    "icao": "RKPC",
    "iata": "CJU",
    "name": "Jeju International Airport",
    "city": "Jeju City",
    "state": "49",
    "country": "KR",
    "elevation": 118,
    "lat": 33.512058,
    "lon": 126.492548,
    "tz": ""
  },
  "RKPK": {
    "icao": "RKPK",
    "iata": "PUS",
    "name": "Gimhae International Airport",
    "city": "Busan",
    "state": "26",
    "country": "KR",
    "elevation": 6,
    "lat": 35.179501,
    "lon": 128.938004,
    "tz": ""
  },
  "RKSI": {
    "icao": "RKSI",
    "iata": "ICN",
    "name": "Incheon International Airport",
    "city": "Seoul",
    "state": "28",
    "country": "KR",
    "elevation": 23,
    "lat": 37.469101,
    "lon": 126.450996,
    "tz": ""
  },
  "RKSS": {
    "icao": "RKSS",
    "iata": "GMP",
    "name": "Gimpo International Airport",
    "city": "Seoul",
    "state": "11",
    "country": "KR",
    "elevation": 59,
    "lat": 37.5583,
    "lon": 126.791,
    "tz": ""
  },
  "ROAH": {
    "icao": "ROAH",
    "iata": "OKA",
    "name": "Naha Airport / JASDF Naha Air Base",
    "city": "Naha",
    "state": "47",
    "country": "JP",
    "elevation": 12,
    "lat": 26.195801,
    "lon": 127.646004,
    "tz": ""
  },
  "RODN": {
    "icao": "RODN",
    "iata": "DNA",
    "name": "Kadena Air Base",
    "city": "Okinawa",
    "state": "47",
    "country": "JP",
    "elevation": 143,
    "lat": 26.351667,
    "lon": 127.769444,
    "tz": ""
  },
  "RPLL": {
    "icao": "RPLL",
    "iata": "MNL",
    "name": "Ninoy Aquino International Airport",
    "city": "Manila (Pasay)",
    "state": "00",
    "country": "PH",
    "elevation": 75,
    "lat": 14.5086,
    "lon": 121.019997,
    "tz": ""
  },
  "RPMD": {
    "icao": "RPMD",
    "iata": "DVO",
    "name": "Francisco Bangoy International Airport",
    "city": "Davao",
    "state": "DVO",
    "country": "PH",
    "elevation": 96,
    "lat": 7.12552,
    "lon": 125.646004,
    "tz": ""
  },
  "RPVM": {
    "icao": "RPVM",
    "iata": "CEB",
    "name": "Mactan Cebu International Airport",
    "city": "Lapu-Lapu City",
    "state": "CEB",
    "country": "PH",
    "elevation": 31,
    "lat": 10.309261,
    "lon": 123.97974,
    "tz": ""
  },
  "RU-0016": {
    "icao": "",
    "iata": "",
    "name": "Lipetsk Air Base",
    "city": "Lipetsk",
    "state": "LIP",
    "country": "RU",
    "elevation": 636,
    "lat": 52.634998,
    "lon": 39.445,
    "tz": ""
  },
  "SABE": {
    "icao": "SABE",
    "iata": "AEP",
    "name": "Jorge Newbery Airpark",
    "city": "Buenos Aires",
    "state": "C",
    "country": "AR",
    "elevation": 18,
    "lat": -34.5592,
    "lon": -58.4156,
    "tz": ""
  },
  "SAEZ": {
    "icao": "SAEZ",
    "iata": "EZE",
    "name": "Minister Pistarini International Airport",
    "city": "Buenos Aires (Ezeiza)",
    "state": "B",
    "country": "AR",
    "elevation": 67,
    "lat": -34.8222,
    "lon": -58.5358,
    "tz": ""
  },
  "SBBE": {
    "icao": "SBBE",
    "iata": "BEL",
    "name": "Val de Cans/Júlio Cezar Ribeiro International Airport",
    "city": "Belém",
    "state": "PA",
    "country": "BR",
    "elevation": 54,
    "lat": -1.379279,
    "lon": -48.476207,
    "tz": ""
  },
  "SBBR": {
    "icao": "SBBR",
    "iata": "BSB",
    "name": "Presidente Juscelino Kubitschek International Airport",
    "city": "Brasília",
    "state": "DF",
    "country": "BR",
    "elevation": 3497,
    "lat": -15.869167,
    "lon": -47.920834,
    "tz": ""
  },
  "SBCF": {
    "icao": "SBCF",
    "iata": "CNF",
    "name": "Tancredo Neves International Airport",
    "city": "Belo Horizonte",
    "state": "MG",
    "country": "BR",
    "elevation": 2721,
    "lat": -19.63571,
    "lon": -43.966928,
    "tz": ""
  },
  "SBEG": {
    "icao": "SBEG",
    "iata": "MAO",
    "name": "Eduardo Gomes International Airport",
    "city": "Manaus",
    "state": "AM",
    "country": "BR",
    "elevation": 264,
    "lat": -3.03861,
    "lon": -60.049702,
    "tz": ""
  },
  "SBFL": {
    "icao": "SBFL",
    "iata": "FLN",
    "name": "Hercílio Luz International Airport",
    "city": "Florianópolis",
    "state": "SC",
    "country": "BR",
    "elevation": 16,
    "lat": -27.670279,
    "lon": -48.552502,
    "tz": ""
  },
  "SBFZ": {
    "icao": "SBFZ",
    "iata": "FOR",
    "name": "Pinto Martins International Airport",
    "city": "Fortaleza",
    "state": "CE",
    "country": "BR",
    "elevation": 83,
    "lat": -3.775833,
    "lon": -38.532222,
    "tz": ""
  },
  "SBGL": {
    "icao": "SBGL",
    "iata": "GIG",
    "name": "Rio Galeão – Tom Jobim International Airport",
    "city": "Rio De Janeiro",
    "state": "RJ",
    "country": "BR",
    "elevation": 28,
    "lat": -22.809999,
    "lon": -43.250557,
    "tz": ""
  },
  "SBGR": {
    "icao": "SBGR",
    "iata": "GRU",
    "name": "Guarulhos - Governador André Franco Montoro International Airport",
    "city": "São Paulo",
    "state": "SP",
    "country": "BR",
    "elevation": 2461,
    "lat": -23.431944,
    "lon": -46.467778,
    "tz": ""
  },
  "SBPS": {
    "icao": "SBPS",
    "iata": "BPS",
    "name": "Porto Seguro Airport",
    "city": "Porto Seguro",
    "state": "BA",
    "country": "BR",
    "elevation": 169,
    "lat": -16.438426,
    "lon": -39.080584,
    "tz": ""
  },
  "SBSV": {
    "icao": "SBSV",
    "iata": "SSA",
    "name": "Deputado Luiz Eduardo Magalhães International Airport",
    "city": "Salvador",
    "state": "BA",
    "country": "BR",
    "elevation": 64,
    "lat": -12.908611,
    "lon": -38.322498,
    "tz": ""
  },
  "SBVT": {
    "icao": "SBVT",
    "iata": "VIX",
    "name": "Eurico de Aguiar Salles Airport",
    "city": "Vitória",
    "state": "ES",
    "country": "BR",
    "elevation": 34,
    "lat": -20.258,
    "lon": -40.285,
    "tz": ""
  },
  "SCEL": {
    "icao": "SCEL",
    "iata": "SCL",
    "name": "Comodoro Arturo Merino Benítez International Airport",
    "city": "Santiago",
    "state": "RM",
    "country": "CL",
    "elevation": 1555,
    "lat": -33.393001556396484,
    "lon": -70.78579711914062,
    "tz": ""
  },
  "SEGU": {
    "icao": "SEGU",
    "iata": "GYE",
    "name": "José Joaquín de Olmedo International Airport",
    "city": "Guayaquil",
    "state": "G",
    "country": "EC",
    "elevation": 19,
    "lat": -2.15742,
    "lon": -79.883598,
    "tz": ""
  },
  "SEQM": {
    "icao": "SEQM",
    "iata": "UIO",
    "name": "Mariscal Sucre International Airport",
    "city": "Quito",
    "state": "P",
    "country": "EC",
    "elevation": 7841,
    "lat": -0.125399,
    "lon": -78.354306,
    "tz": ""
  },
  "SGAS": {
    "icao": "SGAS",
    "iata": "ASU",
    "name": "Silvio Pettirossi International Airport",
    "city": "Asunción",
    "state": "11",
    "country": "PY",
    "elevation": 292,
    "lat": -25.240156,
    "lon": -57.519227,
    "tz": ""
  },
  "SGEN": {
    "icao": "SGEN",
    "iata": "ENO",
    "name": "Lieutenant Amin Ayub González International Airport",
    "city": "Encarnación",
    "state": "7",
    "country": "PY",
    "elevation": 659,
    "lat": -27.227537,
    "lon": -55.837584,
    "tz": ""
  },
  "SGES": {
    "icao": "SGES",
    "iata": "AGT",
    "name": "Guaraní International Airport",
    "city": "Ciudad del Este",
    "state": "10",
    "country": "PY",
    "elevation": 846,
    "lat": -25.457186,
    "lon": -54.839544,
    "tz": ""
  },
  "SGME": {
    "icao": "SGME",
    "iata": "ESG",
    "name": "Doctor Luis Maria Argaña International Airport",
    "city": "Mariscal Estigarribia",
    "state": "19",
    "country": "PY",
    "elevation": 553,
    "lat": -22.046499,
    "lon": -60.6217,
    "tz": ""
  },
  "SKBO": {
    "icao": "SKBO",
    "iata": "BOG",
    "name": "El Dorado International Airport",
    "city": "Bogota",
    "state": "DC",
    "country": "CO",
    "elevation": 8361,
    "lat": 4.70159,
    "lon": -74.1469,
    "tz": ""
  },
  "SLVR": {
    "icao": "SLVR",
    "iata": "VVI",
    "name": "Viru Viru International Airport",
    "city": "Santa Cruz",
    "state": "S",
    "country": "BO",
    "elevation": 1224,
    "lat": -17.6448,
    "lon": -63.135399,
    "tz": ""
  },
  "SMJP": {
    "icao": "SMJP",
    "iata": "PBM",
    "name": "Johan Adolf Pengel International Airport",
    "city": "Zandery",
    "state": "PR",
    "country": "SR",
    "elevation": 59,
    "lat": 5.45283,
    "lon": -55.187801,
    "tz": ""
  },
  "SOCA": {
    "icao": "SOCA",
    "iata": "CAY",
    "name": "Cayenne – Félix Eboué Airport",
    "city": "Matoury",
    "state": "CY",
    "country": "GF",
    "elevation": 26,
    "lat": 4.819964,
    "lon": -52.361326,
    "tz": ""
  },
  "SPIM": {
    "icao": "SPJC",
    "iata": "LIM",
    "name": "Jorge Chávez International Airport",
    "city": "Lima",
    "state": "LIM",
    "country": "PE",
    "elevation": 113,
    "lat": -12.0219,
    "lon": -77.114305,
    "tz": ""
  },
  "SPZO": {
    "icao": "SPZO",
    "iata": "CUZ",
    "name": "Alejandro Velasco Astete International Airport",
    "city": "Cusco",
    "state": "CUS",
    "country": "PE",
    "elevation": 10860,
    "lat": -13.535699844400002,
    "lon": -71.9387969971,
    "tz": ""
  },
  "SUMU": {
    "icao": "SUMU",
    "iata": "MVD",
    "name": "Carrasco General Cesáreo L. Berisso International Airport",
    "city": "Ciudad de la Costa",
    "state": "CA",
    "country": "UY",
    "elevation": 105,
    "lat": -34.835647,
    "lon": -56.026497,
    "tz": ""
  },
  "SVBC": {
    "icao": "SVBC",
    "iata": "BLA",
    "name": "General José Antonio Anzoategui International Airport",
    "city": "Barcelona",
    "state": "B",
    "country": "VE",
    "elevation": 30,
    "lat": 10.111111,
    "lon": -64.692222,
    "tz": ""
  },
  "SVMI": {
    "icao": "SVMI",
    "iata": "CCS",
    "name": "Maiquetía Simón Bolívar International Airport",
    "city": "Maiquetía",
    "state": "X",
    "country": "VE",
    "elevation": 234,
    "lat": 10.601194,
    "lon": -66.991222,
    "tz": ""
  },
  "TFFF": {
    "icao": "TFFF",
    "iata": "FDF",
    "name": "Martinique Aimé Césaire International Airport",
    "city": "Fort-de-France",
    "state": "U",
    "country": "MQ",
    "elevation": 16,
    "lat": 14.591,
    "lon": -61.003201,
    "tz": ""
  },
  "TFFR": {
    "icao": "TFFR",
    "iata": "PTP",
    "name": "Guadeloupe - Maryse Condé International Airport",
    "city": "Pointe-à-Pitre",
    "state": "U",
    "country": "GP",
    "elevation": 36,
    "lat": 16.265301,
    "lon": -61.531799,
    "tz": ""
  },
  "TJSJ": {
    "icao": "TJSJ",
    "iata": "SJU",
    "name": "Luis Munoz Marin International Airport",
    "city": "San Juan",
    "state": "U",
    "country": "PR",
    "elevation": 9,
    "lat": 18.4394,
    "lon": -66.001801,
    "tz": ""
  },
  "TLPL": {
    "icao": "TLPL",
    "iata": "UVF",
    "name": "Hewanorra International Airport",
    "city": "Vieux Fort",
    "state": "11",
    "country": "LC",
    "elevation": 14,
    "lat": 13.7332,
    "lon": -60.952599,
    "tz": ""
  },
  "TNCA": {
    "icao": "TNCA",
    "iata": "AUA",
    "name": "Queen Beatrix International Airport",
    "city": "Oranjestad",
    "state": "U",
    "country": "AW",
    "elevation": 60,
    "lat": 12.5014,
    "lon": -70.015198,
    "tz": ""
  },
  "TNCB": {
    "icao": "TNCB",
    "iata": "BON",
    "name": "Flamingo International Airport",
    "city": "Kralendijk",
    "state": "BO",
    "country": "BQ",
    "elevation": 20,
    "lat": 12.131,
    "lon": -68.268501,
    "tz": ""
  },
  "TNCC": {
    "icao": "TNCC",
    "iata": "CUR",
    "name": "Hato International Airport",
    "city": "Willemstad",
    "state": "U",
    "country": "CW",
    "elevation": 29,
    "lat": 12.1889,
    "lon": -68.959801,
    "tz": ""
  },
  "TNCM": {
    "icao": "TNCM",
    "iata": "SXM",
    "name": "Princess Juliana International Airport",
    "city": "Sint Maarten",
    "state": "U",
    "country": "SX",
    "elevation": 13,
    "lat": 18.041,
    "lon": -63.108898,
    "tz": ""
  },
  "UAAA": {
    "icao": "UAAA",
    "iata": "ALA",
    "name": "Almaty International Airport",
    "city": "Almaty",
    "state": "ALA",
    "country": "KZ",
    "elevation": 2234,
    "lat": 43.354267,
    "lon": 77.042828,
    "tz": ""
  },
  "UACC": {
    "icao": "UACC",
    "iata": "NQZ",
    "name": "Nursultan Nazarbayev International Airport",
    "city": "Astana",
    "state": "AST",
    "country": "KZ",
    "elevation": 1165,
    "lat": 51.027035,
    "lon": 71.467094,
    "tz": ""
  },
  "UAFM": {
    "icao": "",
    "iata": "FRU",
    "name": "Manas International Airport",
    "city": "Bishkek",
    "state": "C",
    "country": "KG",
    "elevation": 2058,
    "lat": 43.0612983704,
    "lon": 74.4776000977,
    "tz": ""
  },
  "UBBB": {
    "icao": "UBBB",
    "iata": "GYD",
    "name": "Heydar Aliyev International Airport",
    "city": "Baku",
    "state": "BA",
    "country": "AZ",
    "elevation": 10,
    "lat": 40.467498779296875,
    "lon": 50.04669952392578,
    "tz": ""
  },
  "UDYZ": {
    "icao": "UDYZ",
    "iata": "EVN",
    "name": "Zvartnots International Airport",
    "city": "Yerevan",
    "state": "ER",
    "country": "AM",
    "elevation": 2838,
    "lat": 40.1473007202,
    "lon": 44.3959007263,
    "tz": ""
  },
  "UGTB": {
    "icao": "UGTB",
    "iata": "TBS",
    "name": "Tbilisi International Airport",
    "city": "Tbilisi",
    "state": "TB",
    "country": "GE",
    "elevation": 1624,
    "lat": 41.669201,
    "lon": 44.9547,
    "tz": ""
  },
  "UHWW": {
    "icao": "UHWW",
    "iata": "VVO",
    "name": "Vladivostok International Airport",
    "city": "Artyom",
    "state": "PRI",
    "country": "RU",
    "elevation": 59,
    "lat": 43.396256,
    "lon": 132.148155,
    "tz": ""
  },
  "UKBB": {
    "icao": "UKBB",
    "iata": "KBP",
    "name": "Boryspil International Airport",
    "city": "Boryspil",
    "state": "32",
    "country": "UA",
    "elevation": 427,
    "lat": 50.345001,
    "lon": 30.894699,
    "tz": ""
  },
  "UKLL": {
    "icao": "UKLL",
    "iata": "LWO",
    "name": "Lviv International Airport",
    "city": "Lviv",
    "state": "46",
    "country": "UA",
    "elevation": 1071,
    "lat": 49.8125,
    "lon": 23.9561,
    "tz": ""
  },
  "ULLI": {
    "icao": "ULLI",
    "iata": "LED",
    "name": "Pulkovo Airport",
    "city": "St. Petersburg",
    "state": "SPE",
    "country": "RU",
    "elevation": 78,
    "lat": 59.800301,
    "lon": 30.262501,
    "tz": ""
  },
  "UMMS": {
    "icao": "UMMS",
    "iata": "MSQ",
    "name": "Minsk National Airport",
    "city": "Minsk",
    "state": "MI",
    "country": "BY",
    "elevation": 670,
    "lat": 53.888071,
    "lon": 28.039964,
    "tz": ""
  },
  "UNKL": {
    "icao": "UNKL",
    "iata": "KJA",
    "name": "Krasnoyarsk International Airport",
    "city": "Krasnoyarsk",
    "state": "KYA",
    "country": "RU",
    "elevation": 942,
    "lat": 56.173077,
    "lon": 92.492437,
    "tz": ""
  },
  "UNNT": {
    "icao": "UNNT",
    "iata": "OVB",
    "name": "Novosibirsk Tolmachevo Airport",
    "city": "Novosibirsk",
    "state": "NVS",
    "country": "RU",
    "elevation": 365,
    "lat": 55.019756,
    "lon": 82.618675,
    "tz": ""
  },
  "URRP": {
    "icao": "URRP",
    "iata": "ROV",
    "name": "Platov International Airport",
    "city": "Rostov-on-Don",
    "state": "ROS",
    "country": "RU",
    "elevation": 213,
    "lat": 47.493888,
    "lon": 39.924722,
    "tz": ""
  },
  "URSS": {
    "icao": "URSS",
    "iata": "AER",
    "name": "Sochi International Airport",
    "city": "Sochi",
    "state": "KDA",
    "country": "RU",
    "elevation": 89,
    "lat": 43.449902,
    "lon": 39.9566,
    "tz": ""
  },
  "USSS": {
    "icao": "USSS",
    "iata": "SVX",
    "name": "Koltsovo Airport",
    "city": "Yekaterinburg",
    "state": "SVE",
    "country": "RU",
    "elevation": 764,
    "lat": 56.743099212646,
    "lon": 60.802700042725,
    "tz": ""
  },
  "UTAA": {
    "icao": "UTAA",
    "iata": "ASB",
    "name": "Ashgabat International Airport",
    "city": "Ashgabat",
    "state": "S",
    "country": "TM",
    "elevation": 692,
    "lat": 37.986801,
    "lon": 58.361,
    "tz": ""
  },
  "UTTT": {
    "icao": "UTTT",
    "iata": "TAS",
    "name": "Tashkent International Airport",
    "city": "Tashkent",
    "state": "TO",
    "country": "UZ",
    "elevation": 1417,
    "lat": 41.257900238,
    "lon": 69.2811965942,
    "tz": ""
  },
  "UUBW": {
    "icao": "UUBW",
    "iata": "ZIA",
    "name": "Zhukovsky International Airport",
    "city": "Moscow",
    "state": "MOS",
    "country": "RU",
    "elevation": 377,
    "lat": 55.553299,
    "lon": 38.150002,
    "tz": ""
  },
  "UUDD": {
    "icao": "UUDD",
    "iata": "DME",
    "name": "Domodedovo International Airport",
    "city": "Moscow",
    "state": "MOS",
    "country": "RU",
    "elevation": 588,
    "lat": 55.408798,
    "lon": 37.9063,
    "tz": ""
  },
  "UUEE": {
    "icao": "UUEE",
    "iata": "SVO",
    "name": "Sheremetyevo International Airport",
    "city": "Moscow",
    "state": "MOS",
    "country": "RU",
    "elevation": 622,
    "lat": 55.972599,
    "lon": 37.4146,
    "tz": ""
  },
  "UUWW": {
    "icao": "UUWW",
    "iata": "VKO",
    "name": "Vnukovo International Airport",
    "city": "Moscow",
    "state": "MOW",
    "country": "RU",
    "elevation": 685,
    "lat": 55.591499,
    "lon": 37.261501,
    "tz": ""
  },
  "UWKD": {
    "icao": "UWKD",
    "iata": "KZN",
    "name": "Kazan International Airport",
    "city": "Kazan",
    "state": "TA",
    "country": "RU",
    "elevation": 411,
    "lat": 55.606201,
    "lon": 49.278702,
    "tz": ""
  },
  "UWSG": {
    "icao": "UWSG",
    "iata": "GSV",
    "name": "Gagarin International Airport",
    "city": "Saratov",
    "state": "SAR",
    "country": "RU",
    "elevation": 103,
    "lat": 51.712778,
    "lon": 46.171111,
    "tz": ""
  },
  "UWUU": {
    "icao": "UWUU",
    "iata": "UFA",
    "name": "Ufa International Airport",
    "city": "Ufa",
    "state": "BA",
    "country": "RU",
    "elevation": 449,
    "lat": 54.557498931885,
    "lon": 55.874401092529,
    "tz": ""
  },
  "UWWW": {
    "icao": "UWWW",
    "iata": "KUF",
    "name": "Kurumoch International Airport",
    "city": "Samara",
    "state": "SAM",
    "country": "RU",
    "elevation": 477,
    "lat": 53.504902,
    "lon": 50.164299,
    "tz": ""
  },
  "VABB": {
    "icao": "VABB",
    "iata": "BOM",
    "name": "Chhatrapati Shivaji International Airport",
    "city": "Mumbai",
    "state": "MM",
    "country": "IN",
    "elevation": 39,
    "lat": 19.0886993408,
    "lon": 72.8678970337,
    "tz": ""
  },
  "VAHS": {
    "icao": "VAHS",
    "iata": "HSR",
    "name": "Rajkot International Airport",
    "city": "Rajkot",
    "state": "GJ",
    "country": "IN",
    "elevation": 647,
    "lat": 22.378824,
    "lon": 71.039391,
    "tz": ""
  },
  "VCBI": {
    "icao": "VCBI",
    "iata": "CMB",
    "name": "Bandaranaike International Colombo Airport",
    "city": "Colombo",
    "state": "1",
    "country": "LK",
    "elevation": 30,
    "lat": 7.180759906768799,
    "lon": 79.88410186767578,
    "tz": ""
  },
  "VCRI": {
    "icao": "VCRI",
    "iata": "HRI",
    "name": "Mattala Rajapaksa International Airport",
    "city": "Mattala",
    "state": "3",
    "country": "LK",
    "elevation": 157,
    "lat": 6.284467,
    "lon": 81.124128,
    "tz": ""
  },